,lat,lng,name,vicinity
0,38.9294434,-77.0147266,"Dr. Elmer E. Huerta, MD","110 Irving Street Northwest, Washington"
1,38.9029656,-77.0457479,"Dr. Sandra I. Read, MD","2021 K Street Northwest #508, Washington"
2,38.905054,-77.04289299999999,Capital Oral & Facial Surgery Center,"1145 19th Street Northwest #777, Washington"
3,38.92950599999999,-77.0147963,"Robert Henshaw, MD","Washington Cancer Institute, 110 Irving Street Northwest C-2173, Washington"
4,38.9294434,-77.0147266,Washington Hospital Center: Bank William O MD,"110 Irving Street Northwest # G012, Washington"
5,38.9068903,-77.043472,Capital Podiatry Associates,"1234 19th Street Northwest, Washington"
6,38.9294434,-77.0147266,Washington Cancer Institute: Fields Abbie MD,"110 Irving Street Northwest, Washington"
7,38.9294434,-77.0147266,Washington Cardiology Center: Suddath William O MD,"110 Irving Street Northwest, Washington"
8,38.9294434,-77.0147266,"Dr. Rita W. Driggers, MD","110 Irving Street Northwest, Washington"
9,38.92711749999999,-77.0145732,Children's National - Main Hospital,"111 Michigan Avenue Northwest, Washington"
10,38.9049024,-77.0507387,"Dr. James N. Debritz, MD","2300 M Street Northwest, Washington"
11,38.905041,-77.042864,"Dr. Ian Beiser, DPM","1145 19th Street Northwest suite 605, Washington"
12,38.9050447,-77.04292509999999,"Jordan Heffez, MD (Retina Consultants PC)","1145 19th Street Northwest Suite 500, Washington"
13,38.9050447,-77.04292509999999,Reiter & Hill: Reiter Mark B MD,"1145 19th Street Northwest #410, Washington"
14,38.902933,-77.045748,"Andrew B. Wolff, MD","2021 K Street Northwest #516, Washington"
15,38.90504309999999,-77.05297399999999,Semerjian Hrant MD,"2440 M Street Northwest, Washington"
16,38.93059179999999,-77.0133791,"Dr. Stephen F. Gunther, MD","102 Irving Street Northwest, Washington"
17,38.929171,-77.012675,"Dr. Konrad L. Dawson, MD","106 Irving Street Northwest, Washington"
18,38.90504309999999,-77.05297399999999,Pullman & Associates Pediatrics,"2440 M Street Northwest Suite #422, Washington"
19,38.90482859999999,-77.05239870000001,"Dr. George B. Bren, MD","2440 M Street Northwest #804, Washington"
20,38.929543,-77.013673,Travel Clinics of America: Dr. Emmanuel Mbualungu,"106 Irving Street Northwest Suite 403, Washington"
21,38.905045,-77.05291,"MI Skin Dermatology Center: Melda Isaac, MD","2440 M Street Northwest #703, Washington"
22,38.9029756,-77.04551459999999,"Jeffrey B Sherman, MD","2021 K Street Northwest, Washington"
23,38.9294434,-77.0147266,"Dr. Michael S. Gold, MD","110 Irving Street Northwest, Washington"
24,38.89922490000001,-76.9798776,"Richard A. Wilson Jr., MD","1647 Benning Road Northeast, Washington"
25,38.9049677,-77.0507796,"DC Head and Neck - Arjun Joshi, M.D.","4, 2300 M Street Northwest, Washington"
26,38.9294434,-77.0147266,"Dr. Brian Walitt, MD","110 Irving Street Northwest #2A66, Washington"
27,38.9294434,-77.0147266,"Dr. Leonard Wartofsky, MD","110 Irving Street Northwest #2A62, Washington"
28,38.9047729,-77.0530075,"Sinan Duzyurek, MD, PLLC","2440 M Street Northwest #413, Washington"
29,38.930592,-77.013379,"Dr. Robert Laureno, MD","102 Irving Street Northwest, Washington"
30,38.9294434,-77.0147266,Washington Cancer Institute: Catlett Joseph MD,"110 Irving Street Northwest, Washington"
31,38.92950039999999,-77.0144985,"Dr. Lowell F. Satler, MD","110 Irving Street Northwest #4B-1, Washington"
32,38.9294434,-77.0147266,"Dr. Anna H. Choi, MD","110 Irving Street Northwest, Washington"
33,38.9294418,-77.0147304,Washington Hospital Center: Lewis Mary-Margar MD,"110 Irving Street Northwest, Washington"
34,38.9293814,-77.0146402,"Dr. Nelson L. Bernardo, MD","110 Irving Street Northwest #4B-1, Washington"
35,38.9297027,-77.0151291,"Dr. Augusto Descalzi Pichard, MD","110 Irving Street Northwest #4b-1, Washington"
36,38.92950039999999,-77.0144985,"Dr. Aarthi G. Shenoy, MD","110 Irving Street Northwest, Washington"
37,38.9294434,-77.0147266,Washington Hospital Center: Ruiz Maria Elena MD,"110 Irving Street Northwest, Washington"
38,38.9294418,-77.0147304,Bruce Stephanie MD,"110 Irving Street Northwest, Washington"
39,38.9294434,-77.0147266,Washington Hospital Center: Locke Stephanie F MD,"110 Irving Street Northwest # G012, Washington"
40,38.92950039999999,-77.0144985,"Dr. Leon L. Lai, MD","110 Irving Street Northwest Suite 1A50B, Washington"
41,38.92950039999999,-77.0144985,"Jorge Garcia, MD","110 Irving Street Northwest, Washington"
42,38.92950039999999,-77.0144985,"Hossein Khorashadi, MD | Kaiser Permanente","110 Irving Street Northwest, Washington"
43,38.9294434,-77.0147266,Washington Hospital Center: Shah Amit N MD,"110 Irving Street Northwest # G012, Washington"
44,38.9294434,-77.0147266,Washington Hospital Center: Kanda Louis T MD,"110 Irving Street Northwest # G012, Washington"
45,38.9294434,-77.0147266,Washington Hospital Center: Devore Heather K MD,"110 Irving Street Northwest # G012, Washington"
46,38.9294434,-77.0147266,Washington Hospital Center: Veis Judith MD,"110 Irving Street Northwest, Washington"
47,38.9294434,-77.0147266,Washington Hospital Center: Gebreyes Kulleni MD,"110 Irving Street Northwest # G012, Washington"
48,38.88570109999999,-76.997652,NovaCare Rehabilitation,"600 Pennsylvania Avenue Southeast Suite 202, Washington"
49,38.9175676,-77.020726,Howard University Hospital:pulmonary,"2041 Georgia Avenue Northwest, Washington"
50,38.9290521,-77.014524,"Dr. Francisco King, MD","106 Irving Street Northwest, Washington"
51,38.929543,-77.013673,Altschuler Jonathan A MD,"106 Irving Street Northwest # 2700, Washington"
52,38.92731070000001,-77.014524,Children's National Med Center: Silber Tomas Jose MD,"111 Michigan Avenue Northwest, Washington"
53,38.928935,-77.01360199999999,Awah Georges C P MD,"106 Irving Street Northwest, Washington"
54,38.92731070000001,-77.014524,Children's National Med Center: Pratt Susan J MD,"111 Michigan Avenue Northwest, Washington"
55,38.90408600000001,-77.03057,Digisource,"1313 L Street Northwest, Washington"
56,38.88515769999999,-76.99650749999999,"Dr. Shyrl I. Sistrunk, MD","660 Pennsylvania Avenue Southeast #100, Washington"
57,38.9053115,-77.0127649,"Shiban Raina, MD","128 M Street Northwest #050, Washington"
58,38.90536280000001,-77.0183771,Aziz Salim MD,"2175 K Street Northwest, Washington"
59,38.9010212,-77.0379229,Bergstrom Ida Marie MD,"815 Connecticut Avenue Northwest, Washington"
60,38.8853816,-76.9969706,Chevalier Denise A MD,"650 Pennsylvania Avenue Southeast, Washington"
61,38.902893,-77.03916699999999,The Washington Travel Clinic,"1001 Connecticut Avenue Northwest #210, Washington"
62,38.8954586,-77.0133543,Unity Health Care: Cardile Anne MD,"425 2nd Street Northwest, Washington"
63,38.8954534,-77.0133259,Kossoff Amy MD,"425 2nd Street Northwest, Washington"
64,38.8851576,-76.99650729999999,Basch Peter MD,"660 Pennsylvania Avenue Southeast #100, Washington"
65,38.8954586,-77.0133543,"Dr. James A. Ronan Jr, MD","425 2nd Street Northwest, Washington"
66,38.887205,-77.00849529999999,Congresswoman Nan Hayworth,"1440 Longworth Hob, Washington"
67,38.89949790000001,-77.0039553,"Mary Gorman, MD | Kaiser Permanente","700 2nd Street Northeast, Washington"
68,38.8986993,-77.0264925,One Medical,"1001 G Street Northwest Suite 200, Washington"
69,38.8979732,-77.0284837,"Dr. Douglas F. Greer, MD","1200 G Street Northwest, Washington"
70,38.89543930000001,-77.0132924,"Dr. William H. Harpster, MD","425 2nd Street Northwest, Washington"
71,38.9103106,-77.021587,Abramson Randi C MD,"1525 7th Street Northwest, Washington"
72,38.9016733,-77.0380988,Kimbrough William H MD,"1627 I Street Northwest #700, Washington"
73,38.8954779,-77.02380110000001,Whitaker Mark D,"401 9th Street Northwest #900, Washington"
74,38.8851474,-76.9963625,Medstar Health Physicians: Waterman Daniel H MD,"660 Pennsylvania Avenue Southeast # 100, Washington"
75,38.899225,-76.979878,"District Podiatry, PLLC: Lubrina Bryant, DPM","1647 Benning Road Northeast #301, Washington"
76,38.8862079,-77.02144220000001,"Jeanne Bertoli, PHD","600 Maryland Avenue Southwest, Washington"
77,38.875047,-76.989356,Unity Health Care Inc: Stockham Chad E MD,"1220 12th Street Southeast # 120, Washington"
78,38.8781287,-76.9809301,Brooks Rodney W MD,"660 Pennsylvania Avenue Southeast # 100, Washington"
79,38.9103106,-77.021587,"Hope Ferdowsian, MD, MPH","1525 7th Street Northwest, Washington"
80,38.875047,-76.989356,Unity Health Care Inc: Oswald Mark A MD,"1220 12th Street Southeast # 120, Washington"
81,38.875047,-76.989356,Unity Health Care Inc: Menon Anju MD,"1220 12th Street Southeast # 120, Washington"
82,38.875047,-76.989356,Unity Health Care Inc: Johnson Thomas M MD,"1220 12th Street Southeast # 120, Washington"
83,38.875047,-76.989356,Levin Ilse R DO,"1220 12th Street Southeast # 120, Washington"
84,38.875047,-76.989356,Unity Health Care Inc: Klein Melissa D MD,"1220 12th Street Southeast # 120, Washington"
85,38.8954586,-77.0133543,"Dr. Catherine P. Crosland, MD","425 2nd Street Northwest, Washington"
86,38.9103235,-77.0216105,Myles Joan M MD,"1525 7th Street Northwest, Washington"
87,38.8606611,-76.9693018,"Dr. Yolandra E. Hancock, MD","2501 Good Hope Road Southeast, Washington"
88,38.90329439999999,-77.036551,Eye Doctors of Washington,"Lower Level 100, 1016 16th Street Northwest, Washington"
89,38.9103106,-77.021587,Bread For the City Med Clinic: Villivalam Arun K MD,"1525 7th Street Northwest, Washington"
90,38.9103106,-77.021587,Bread For the City Med Clinic: Lurie Nicole MD,"1525 7th Street Northwest, Washington"
91,38.8954586,-77.0133543,"Dr. Ilian Bandaranayake, MD","425 2nd Street Northwest, Washington"
92,38.9017001,-77.0484858,"Dr. Mark F. Gourley, MD","2150 Pennsylvania Avenue Northwest, Washington"
93,38.9011918,-77.0485109,"Letitia Carlson, MD","2150 Pennsylvania Avenue Northwest, Washington"
94,38.9049024,-77.0507387,"Dr. Philip E. Zapanta, MD","4, 2300 M Street Northwest, Washington"
95,38.9016541,-77.04854050000002,George Washington University Med Center: Schroth W Scott MD,"2150 Pennsylvania Avenue Northwest, Washington"
96,38.90504309999999,-77.05297399999999,Bridges R Russell MD,"2440 M Street Northwest #416, Washington"
97,38.91054869999999,-77.07529029999999,"Dr. Amy Lynn Burke, MD","6, 3800 Reservoir Road Northwest, Washington"
98,38.9113791,-77.07539489999999,"Dr. Anne Elizabeth O'Donnell, MD","3800 Reservoir Road Northwest, Washington"
99,38.9061501,-77.0505431,"Muhammad Shibli, MD","1250 23rd Street Northwest, Washington"
100,38.9013368,-77.0507854,"Dr. May L. Chin, MD","900 23rd Street Northwest, Washington"
101,38.9010852,-77.05087069999999,"Dr. Shawn N. Sarin, MD","900 23rd Street Northwest, Washington"
102,38.9010559,-77.050792,"Dr. Anthony C. Venbrux, MD","900 23rd Street Northwest, Washington"
103,38.90504309999999,-77.05297399999999,Warner Ob/gyn Associates,"2440 M Street Northwest, Washington"
104,38.9050033,-77.05296059999999,"Dr. Jason Rosen, MD","2440 M Street Northwest #710, Washington"
105,38.9105479,-77.0743894,"Dr. Nazaneen N. Grant, MD","3800 Reservoir Road Northwest, Washington"
106,38.9105479,-77.0743894,"Dr. Gaurav Bandi, MD","3800 Reservoir Road North West, Washington, DC 20007, Washington"
107,38.9105479,-77.0743894,Pluta Agnieszka Z MD,"3800 Reservoir Road Northwest, Washington"
108,38.9105479,-77.0743894,"Dr. Brian T. Collins, MD","3800 Reservoir Road Northwest, Washington"
109,38.9105584,-77.0751988,"Dr. Carlos A. Mora, MD","3800 Reservoir Road Northwest, Washington"
110,38.9336483,-77.085146,Center For Laser Surgery,"3301 New Mexico Avenue Northwest #240, Washington"
111,38.93355289999999,-77.0849151,"Foxhall Internists PC: Assil Saleh, MD, MPH","3301 New Mexico Avenue Northwest, Washington"
112,38.9337,-77.0851359,Progressive Radiology Foxhall MRI,"3301 New Mexico Avenue Northwest Suite 132, Washington"
113,38.9105479,-77.0743894,Georgetown University Ob/Gyn: Gorman Carolyn M MD,"3800 Reservoir Road Northwest, Washington"
114,38.9105479,-77.0743894,"Dr. Jessica D. Rosen, MD","3800 Reservoir Road Northwest, Washington"
115,38.9105479,-77.0743894,"Dr. Bruce K. Lloyd, MD","3800 Reservoir Road Northwest, Washington"
116,38.9017001,-77.0484858,Medical Faculty Associates: May Larissa S MD,"2150 Pennsylvania Avenue Northwest # 2B, Washington"
117,38.9648445,-77.0881933,Dermatologic Surgery Center of DC: Skelsey Maral K MD,"5530 Wisconsin Avenue, Chevy Chase"
118,38.9648445,-77.0881933,"Sheilah Lynch, MD | Board-Certified Body and Facial Plastic Surgeon","5530 Wisconsin Avenue #1440, Chevy Chase"
119,38.9437638,-76.99157310000001,Providence Hospital: Bordon Jose M MD,"1150 Varnum Street Northeast, Washington"
120,38.9437638,-76.991573,"Dr. Yvette Clinton-Reid, MD","1150 Varnum Street Northeast, Washington"
121,38.9437638,-76.99157310000001,"Dr. Mcdonna Hinds, MD","1150 Varnum Street Northeast, Washington"
122,38.92899540000001,-77.0143621,Lu Rui MD,"106 Irving Street Northwest #411, Washington"
123,38.928935,-77.01360199999999,Cardiology Associates PC: Robinson Reginald L MD,"106 Irving Street Northwest # 2700, Washington"
124,38.997804,-77.028555,Silver Spring Eye,"8630 Fenton Street #514, Silver Spring"
125,38.99786110000001,-77.0285147,Montgomery Infectious Disease: Posorske Lynette H MD,"8630 Fenton Street # 700, Silver Spring"
126,38.9853539,-77.0016717,Munro Thomas J MD,"7600 Carroll Avenue, Takoma Park"
127,38.9979427,-77.02849309999999,Taylor & Osterman,"8630 Fenton Street, Silver Spring"
128,38.9979427,-77.02849309999999,"Silver Spring Dermatology: Purnima Sau, MD","8630 Fenton Street Suite 906, Silver Spring"
129,38.99786110000001,-77.0285147,Snyder Joseph MD,"8630 Fenton Street # 608, Silver Spring"
130,38.9979427,-77.02849309999999,Capital Eye Physicians & Surgeons,"8630 Fenton Street # P7, Silver Spring"
131,38.997919,-77.028482,The Retina Group of Washington,"8630 Fenton Street #1104, Silver Spring"
132,38.9855621,-77.00192559999999,Washington Adventist Hospital: Frank Shin MD,"7600 Carroll Avenue, Takoma Park"
133,38.99791939999999,-77.0284823,"Dr. Howard G. Osterman, DPM","8630 Fenton Street Suite 1, Silver Spring"
134,38.99786110000001,-77.0285147,Center For Male Sexuality: Scarzella Giulio I MD,"8630 Fenton Street # 218, Silver Spring"
135,38.99786110000001,-77.0285147,"Paul M. Taylor, DPM","8630 Fenton Street, Silver Spring"
136,38.99786110000001,-77.0285147,Center For Male Sexuality,"8630 Fenton Street # 218, Silver Spring"
137,38.99666620000001,-77.0290323,American Eye Care Center,"8650 Georgia Avenue, Silver Spring"
138,38.99786110000001,-77.0285147,"Harold I. Rodman, M.D.","8630 Fenton Street #130, Silver Spring"
139,38.9979427,-77.02849309999999,"Dr. William L. Gonzalez, MD","8630 Fenton Street # P7, Silver Spring"
140,38.9978961,-77.0284697,"Dr. Joel M. Engelstein, MD","8630 Fenton Street #130, Silver Spring"
141,38.99786110000001,-77.0285147,"Arusha Gupta, MD","8630 Fenton Street #514, Silver Spring"
142,39.0148381,-77.0342288,"Dr. Paul H. Mccauley, MD","1400 Forest Glen Road, Silver Spring"
143,38.99786110000001,-77.0285147,Montgomery Infectious Disease: Trinh Phuong D MD,"8630 Fenton Street # 700, Silver Spring"
144,38.99786110000001,-77.0285147,Montgomery Infectious Disease Associates,"8630 Fenton Street Suite 700, Silver Spring"
145,38.997927,-77.02848279999999,"Rebecca Shaffer, MD","8630 Fenton Street #700, Silver Spring"
146,38.99786110000001,-77.0285147,"Dr. Samuel B. Barone, MD","8630 Fenton Street #410, Silver Spring"
147,38.9855621,-77.00192559999999,"Joanna M. Holt, NP","7600 Carroll Avenue, Takoma Park"
148,38.9855621,-77.00192559999999,"Dr. Dawit G. Mekonnen, MD","7600 Carroll Avenue, Takoma Park"
149,38.9982379,-77.0332829,"Karen E. Butler-Colbert, MSN","1400 Spring Street, Silver Spring"
150,38.9856862,-77.00192650000001,"Kimberly D. Dalin, MA","7600 Carroll Avenue, Takoma Park"
151,38.9855621,-77.00192559999999,"Danielle K. Katen, MS","7600 Carroll Avenue # 5200, Takoma Park"
152,38.98581350000001,-77.0018192,"PEARSON III MD, LEVI","7600 Carroll Avenue, Takoma Park"
153,38.9855621,-77.00192559999999,Washington Adventist Hospital: Tabar Saam P MD,"7600 Carroll Avenue, Takoma Park"
154,38.9855621,-77.00192559999999,Washington Adventist Hospital: Nguyen Judy P MD,"7600 Carroll Avenue, Takoma Park"
155,38.9855621,-77.00192559999999,"Laura K. Topper, NP","7600 Carroll Avenue, Takoma Park"
156,38.9855621,-77.00192559999999,Cardiovascular Consultants: Di Bianco Robert MD,"7600 Carroll Avenue, Takoma Park"
157,38.9855621,-77.00192559999999,Washington Adventist Hospital: Purushothaman A MD,"7600 Carroll Avenue, Takoma Park"
158,38.9855621,-77.00192559999999,"Dr. Richard S. Squires, MD","7600 Carroll Avenue, Takoma Park"
159,38.9855621,-77.00192559999999,Washington Adventist Hospital: Chen Helen H MD,"7600 Carroll Avenue, Takoma Park"
160,38.9855621,-77.00192559999999,Washington Adventist Hospital: Cooper Richard I MD,"7600 Carroll Avenue, Takoma Park"
161,38.9855621,-77.00192559999999,"Susan C. Nelson-Wilson, CRNP","7600 Carroll Avenue, Takoma Park"
162,38.9855621,-77.00192559999999,Washington Adventist Hospital: Popa Christian MD,"7600 Carroll Avenue, Takoma Park"
163,38.9855621,-77.00192559999999,Washington Adventist Hospital: Hawley Toni Ann MD,"7600 Carroll Avenue, Takoma Park"
164,38.9879271,-77.0999808,Drs. Ingber & Prestipino,"7830 Old Georgetown Road, Bethesda"
165,38.9626256,-77.08705979999999,"Dr. Helene A. Emsellem, MD","5454 Wisconsin Avenue #1725, Chevy Chase"
166,38.9648814,-77.08801749999999,"Dr. Sharon A. Scanlon, MD, FACP","5530 Wisconsin Avenue Suite 1445, Chevy Chase"
167,38.9648428,-77.0882847,"Frederic T. Schwartz, M.D.","5530 Wisconsin Avenue #1147, Chevy Chase"
168,38.9617568,-77.0853207,"Douglas E. Gaasterland, M.D.","2 Wisconsin Circle, Bethesda"
169,38.99214699999999,-77.096419,George A Patterson III MDPC,"8218 Wisconsin Avenue P10, Bethesda"
170,38.9648149,-77.0883092,"Dr. Richard E. Rubin, MD","5530 Wisconsin Avenue, Chevy Chase"
171,38.97845160000001,-77.0918556,Doctor Lisa R Ginn,"6900 Wisconsin Avenue Ste 400, Chevy Chase"
172,38.9648149,-77.0883092,Bodurian & Goldbaum: Goldbaum Thomas MD,"5530 Wisconsin Avenue, Chevy Chase"
173,38.9626496,-77.08703729999999,"C. Coleman Brown, MD, FACS","Barlow Building, 5454 Wisconsin Avenue #1210, Chevy Chase"
174,38.9648926,-77.0882141,"Lynch Plastic Surgery / Sheilah Lynch, MD","5530 Wisconsin Avenue #1440, Chevy Chase"
175,38.9626693,-77.08726109999999,"Shelly Hall, MD","5454 Wisconsin Avenue, Chevy Chase"
176,38.9648445,-77.0881933,"Wendell G. Miles, MD, FACS","5530 Wisconsin Avenue #1235, Chevy Chase"
177,38.96483499999999,-77.088308,"Paul S. Thesiger, M.D.","5530 Wisconsin Avenue Suite1235, Chevy Chase"
178,38.99214699999999,-77.096419,"Dr. Paul Ross, DPM","8218 Wisconsin Avenue, Bethesda"
179,38.964835,-77.0883076,Haig H Yeni Komshian Facog Llc,"5530 Wisconsin Avenue, Chevy Chase"
180,38.9832309,-77.09535749999999,"David Green, M.D.. P.A.","4800 Montgomery Lane M-50, Bethesda"
181,38.96271939999999,-77.0869629,Cardiology & Internal Medicine: Vassallo Joseph A MD,"5454 Wisconsin Avenue # 925, Chevy Chase"
182,38.9625918,-77.08725849999999,"Barry S. Talesnick, MD","Barlow Building, 5454 Wisconsin Avenue #925, Chevy Chase"
183,38.9648445,-77.0881933,Summit Orthopedic Surgery,"5530 Wisconsin Avenue, Chevy Chase"
184,38.9626728,-77.0870089,"Sean M. Dwyer, M.D., F.A.C.C.","5454 Wisconsin Avenue #925, Chevy Chase"
185,38.964835,-77.0883076,Kornblut Alan D MD,"5530 Wisconsin Avenue, Chevy Chase"
186,38.9943328,-77.0763425,"Behnaz Fayazi, MD, LLC","8401 Connecticut Avenue #107, Chevy Chase"
187,38.9648445,-77.0881933,"Ali Mohamadi, MD","5530 Wisconsin Avenue, Chevy Chase"
188,38.956326,-77.083995,DC Laser Nail Center & Heel Pain Center,"5100 Wisconsin Avenue Northwest #522a, Washington"
189,38.9648445,-77.0881933,"Dr. Brendan F. Burke, MD","5530 Wisconsin Avenue, Chevy Chase"
190,38.96386,-77.090473,Capital Digestive Care,"5550 Friendship Boulevard, T-90, Chevy Chase"
191,38.96483499999999,-77.088308,Kay Plastic Surgery,"5530 Wisconsin Avenue #1147, Chevy Chase"
192,38.962644,-77.087284,"John J. Klimkiewicz, MD","5454 Wisconsin Avenue #1000, Chevy Chase"
193,38.9648149,-77.0883092,"Dr. Mona L. Ellis, MD","5530 Wisconsin Avenue, Chevy Chase"
194,38.9648428,-77.0882847,Bethesda Chevy Chase Oral Surgery,"5530 Wisconsin Avenue #930, Chevy Chase"
195,38.9648428,-77.0882847,"Dr. Marie F. Pennanen, MD","5530 Wisconsin Avenue Suite 1455, Chevy Chase"
196,38.9943976,-77.0765698,"Arling & Arling, PC: Arling Bryan J MD","2440 M Street Northwest #817, Washington"
197,38.9105479,-77.0743894,"Dr. Nicole N. Davarpanah, MD","3800 Reservoir Road Northwest, Washington"
198,38.9114532,-77.07527470000001,Hicks Daniel W MD,"3800 Reservoir Road Northwest, Washington"
199,38.9118447,-77.0756487,MedStar Georgetown University Hospital - Sally Joo Bailey,"3800 Reservoir Road Northwest, Washington"
200,38.9118447,-77.0756487,Regan James B MD,"3800 Reservoir Road Northwest # 7, Washington"
201,38.9118079,-77.07568069999999,Georgetown University Hospital Center: Benjamin Stanley B MD,"3800 Reservoir Road Northwest, Washington"
202,38.9120467,-77.07530729999999,"Dr. Catherine Amy Okuliar, MD","Pasquerilla Healthcare Center, 3800 Reservoir Road Northwest, Washington"
203,38.9118447,-77.0756487,Gonin Joyce M MD,"3800 Reservoir Road Northwest, Washington"
204,38.9118447,-77.0756487,"Dr. Joseph G. Verbalis, MD","3800 Reservoir Road Northwest, Washington"
205,38.9119235,-77.07555599999999,"Dr. Sandra D. Allison, MD","3800 Reservoir Road Northwest, Washington"
206,38.9118447,-77.0756487,Georgetown University Ob/Gyn: Amini Dennis MD,"3800 Reservoir Road Northwest, Washington"
207,38.9118447,-77.0756487,Hogan Kevin P MD,"3800 Reservoir Road Northwest # 7, Washington"
208,38.9118447,-77.0756487,"Dr. Craig Martin Kessler, MD","3800 Reservoir Road Northwest, Washington"
209,38.9118447,-77.0756487,Department of Radiology,"3800 Reservoir Road Northwest, Washington"
210,38.9118447,-77.0756487,Georgetown University Hospital: Mott Stephen MD,"3800 Reservoir Road Northwest, Washington"
211,38.93355289999999,-77.0849151,Foxhall Internists: Ungar Beth MD,"3301 New Mexico Avenue Northwest # 331, Washington"
212,38.9118448,-77.0756486,"Lorenzo De Marchi, M.D.","CCC Building, 3800 Reservoir Road Northwest, Washington"
213,38.910564,-77.07433999999999,Brent B Wiesel,"3800 Reservoir Road Northwest, Washington"
214,38.9105479,-77.0743894,Georgetown University Hospital: Francis John E MD,"3800 Reservoir Road Northwest, Washington"
215,38.9364702,-76.9460316,"Ranit Mishori, MD","4151 Bladensburg Road, Colmar Manor"
216,38.9308938,-76.9216079,Prince George's Hospital Center: Valenti Kimberly B MD,"3001 Hospital Drive, Cheverly"
217,38.89621150000001,-76.9474833,"Michelle Gaskins-Craig, MD","4061 Minnesota Avenue Northeast, Washington"
218,38.9308938,-76.9216079,Prince George's Hospital Center: Keenan Andrew M MD,"3001 Hospital Drive, Cheverly"
219,38.9308938,-76.9216079,Prince George's Hospital Center: Egbuonu Donald C MD,"3001 Hospital Drive, Cheverly"
220,38.9308938,-76.9216079,Mt Washington Pediatric: Bailey Lorena H MD,"3001 Hospital Drive, Cheverly"
221,38.9308938,-76.9216079,Prince George's Hospital Center: Abdella Mukemil F MD,"3001 Hospital Drive, Cheverly"
222,38.9308938,-76.9216079,Prince George's Hospital Center: Nkodo Marie-Church MD,"3001 Hospital Drive, Cheverly"
223,38.9308938,-76.9216079,Prince Georges Hospital: Steinberg Bryan M MD,"3001 Hospital Drive, Cheverly"
224,38.9308938,-76.9216079,Prince George's Hospital Center: Ryb Gabriel Edu MD,"3001 Hospital Drive, Cheverly"
225,38.9308938,-76.9216079,Prince Georges Hospital Center: Ashfaei Afshin MD,"3001 Hospital Drive, Cheverly"
226,38.9308938,-76.9216079,Dimensions Healthcare System: Fomufod Antoine MD,"3001 Hospital Drive #4000, Cheverly"
227,38.9308938,-76.9216079,"Dr. Bernard L. Ralls Jr, MD","3001 Hospital Drive, Cheverly"
228,38.9308938,-76.9216079,"Dr. Demetrios J. Catevenis, MD","3001 Hospital Drive, Cheverly"
229,38.9308938,-76.9216079,Koduah Richard MD,"3001 Hospital Drive, Cheverly"
230,38.9308938,-76.9216079,Puppala Neha MD,"3001 Hospital Drive, Cheverly"
231,38.9308974,-76.9216079,"Dr. Hee H. Lee, MD","3001 Hospital Drive, Cheverly"
232,38.9308938,-76.9216079,Prince Georges Hospital: Lee Jung H MD,"3001 Hospital Drive, Cheverly"
233,38.9308938,-76.9216079,Prince Georges Hospital: Pierson Wendell Cor MD,"3001 Hospital Drive, Cheverly"
234,38.9308938,-76.9216079,Prince Georges Hospital Center: Mangraj Sunanda MD,"3001 Hospital Drive, Cheverly"
235,38.9308974,-76.9216079,"Dr. Kourosh Houdsony, MD","3001 Hospital Drive, Cheverly"
236,38.9308974,-76.9216079,"Dr. Sampada Roy, MD","3001 Hospital Drive, Cheverly"
237,38.9308938,-76.9216079,Prince Georges Hospital: Glover Kim B MD,"3001 Hospital Drive, Cheverly"
238,38.9306528,-76.9209111,"Jagdeep Singh, MD","3001 Hospital Drive, Cheverly"
239,38.9308938,-76.9216079,Gurung Chakra MD,"3001 Hospital Drive, Cheverly"
240,38.9308974,-76.9216079,"Dr. Bina Lakhanpal, MD","3001 Hospital Drive, Cheverly"
241,38.9308974,-76.9216079,"Dr. Lydia I. Gilbert-Mcclain, MD","3001 Hospital Drive, Cheverly"
242,38.9308938,-76.9216079,Davis Steven P MD,"3001 Hospital Drive, Cheverly"
243,38.9308938,-76.9216079,Jacobs David H MD,"3001 Hospital Drive, Cheverly"
244,38.9308938,-76.9216079,Prince Georges Hospital: Shirani Ziba MD,"3001 Hospital Drive, Cheverly"
245,38.9308938,-76.9216079,Tran Kevin MD,"3001 Hospital Drive, Cheverly"
246,38.9308938,-76.9216079,Byrne Mark w MD,"3001 Hospital Drive, Cheverly"
247,38.9308938,-76.9216079,Brown Heather A MD,"3001 Hospital Drive, Cheverly"
248,38.9308938,-76.9216079,Abualenain Jameel T MD,"3001 Hospital Drive, Cheverly"
249,38.9308938,-76.9216079,Katz Jon M MD,"3001 Hospital Drive, Cheverly"
250,38.9308938,-76.9216079,"Mahalingashett, Arpana MD - Prince Georges Hospital","3001 Hospital Drive, Cheverly"
251,38.8359393,-76.9849936,Children's National Emergency Department at United Medical Center,"1310 Southern Avenue Southeast 1st Floor, Washington"
252,38.8360918,-76.9846477,Advanced Wound Care,"1310 Southern Avenue Southeast, Washington"
253,38.83578500000001,-76.984854,Bailey Andrea MD,"1310 Southern Avenue Southeast, Washington"
254,38.835044,-76.98388299999999,"Dr. Cyril Allen, MD","1310 Southern Avenue Southeast, Washington"
255,38.835044,-76.98388299999999,"Dr. John D. Kelly, MD","1310 Southern Avenue Southeast, Washington"
256,38.835044,-76.98388299999999,Greater Southeast Community: Marshall Katherine R MD,"1310 Southern Avenue Southeast # 308, Washington"
257,38.8853816,-76.9969706,Eye Center On Capitol Hill,"650 Pennsylvania Avenue Southeast, Washington"
258,38.8851474,-76.9963625,Washington Primary Care Physicians,"660 Pennsylvania Avenue Southeast #10, Washington"
259,38.8852028,-76.9964371,"Dr. Melis Sener, MD","660 Pennsylvania Avenue Southeast, Washington"
260,38.839207,-77.00149979999999,Unity Health Care Ballou High,"3401 4th Street Southeast, Washington"
261,38.88388529999999,-76.9768102,Unity Health Care Corrections,"1901 D Street Southeast, Washington"
262,38.885379,-76.9969321,"Eric Emanuel, MD (Mid Atlantic Urology Associates)","650 Pennsylvania Avenue Southeast, Washington"
263,38.87700299999999,-76.99557399999999,Psi Services Inc,"770 M Street Southeast, Washington"
264,38.8678558,-76.9702317,"Dr. Robert L. Hudson, MD","2600 Naylor Road Southeast, Washington"
265,38.83578500000001,-76.984854,Mc Gann Kevin-Sean DO,"1310 Southern Avenue Southeast # 308, Washington"
266,38.8857053,-76.9976274,Capitol Hill Orthopedics,"600 Pennsylvania Avenue Southeast #202, Washington"
267,38.8853502,-76.9969765,LifeTree Health,"650 Pennsylvania Avenue Southeast #220, Washington"
268,38.8360918,-76.9846477,"Jennifer I. Hall, RD",Washington
269,38.9017001,-77.0484858,George Washington University Med Center: Aragon-Ching Jeanny B MD,"2150 Pennsylvania Avenue Northwest, Washington"
270,38.9017001,-77.0484858,George Washington University Med Center: Simon Gary MD,"2150 Pennsylvania Avenue Northwest, Washington"
271,38.9017001,-77.0484858,"Dr. Vincent J. Obias, MD","2150 Pennsylvania Avenue Northwest, Washington"
272,38.9017001,-77.0484858,Medical Faculty Associates Inc: Smith Patricia A MD,"2150 Pennsylvania Avenue Northwest # 8T, Washington"
273,38.89711689999999,-77.04715449999999,Barnes Jr Reginald D MD,"2112 F Street Northwest, Washington"
274,38.9016541,-77.04854050000002,"Dr. Julia B. Frank, MD","2150 Pennsylvania Avenue Northwest, Washington"
275,38.9017001,-77.0484858,George Washington University Med Center: Lewis Jannet F MD,"2150 Pennsylvania Avenue Northwest, Washington"
276,38.901654,-77.048541,"Dr. Ted L. Rothstein, MD","2150 Pennsylvania Avenue Northwest, Washington"
277,38.9017001,-77.0484858,George Washington University Med Center: Parenti David MD,"2150 Pennsylvania Avenue Northwest, Washington"
278,38.90295,-77.0457347,"Dr. Barbara H. Osborn, MD","2021 K Street Northwest, Washington"
279,38.8034904,-76.9826269,Mc Cone Endoscopy Center,"6196 Oxon Hill Road # 640, Oxon Hill"
280,38.8034904,-76.9826269,Nik Narieman MD,"6196 Oxon Hill Road # 440, Oxon Hill"
281,38.80352,-76.982703,Oxon Hill Pediatrics,"6196 Oxon Hill Road # 540, Oxon Hill"
282,38.803513,-76.98270099999999,Total Women's Care,"6196 Oxon Hill Road #630, Oxon Hill"
283,38.8035133,-76.9827007,Dr. Nima Moainie MD,"6196 Oxon Hill Road #440, Oxon Hill"
284,38.81092460000001,-77.0505365,Alexandria VA Medical Walk-in Clinic & Urgent Care,"526 North Henry Street, Alexandria"
285,38.8034904,-76.9826269,Chidambaram Shobha MD,"6196 Oxon Hill Road #220, Oxon Hill"
286,38.8112009,-77.0508246,Alexandria VA Urgent Care & Medical Group,"526 North Henry Street, Alexandria"
287,38.8110038,-77.0505161,Urgent Care Clinic of Alexandria VA,"526 North Henry Street, Alexandria"
288,38.8034948,-76.98131769999999,Metro Spine Pain Centers,"6188 Oxon Hill Road, Oxon Hill"
289,38.84223159999999,-77.0516627,"Meera Sutaria, OD","3600 South Glebe Road, Arlington"
290,38.835044,-76.98388299999999,"Dr. Jean M. Williams, MD","1310 Southern Avenue Southeast, Washington"
291,38.835044,-76.98388299999999,Greater Southeast Community: Nuni Joe Andrew MD,"1310 Southern Avenue Southeast # 308, Washington"
292,38.8359393,-76.9849936,Choi Moon J MD,"1310 Southern Avenue South East, Washington, DC 20032, Washington"
293,38.8359393,-76.9849936,"Dr. David E. Reagin, MD","1310 Southern Avenue Southeast #308, Washington"
294,38.8360918,-76.9846477,"Dr. Charles E. Hunter, MD","1310 Southern Avenue Southeast #308, Washington"
295,38.835044,-76.98388299999999,Greater Southeast Community: Mogol Carmencita MD,"1310 Southern Avenue Southeast # 308, Washington"
296,38.8359393,-76.9849936,Em Care,"1310 Southern Avenue Southeast, Washington"
297,38.835629,-76.98486299999999,"Emebet Kebede, PA","1310 Southern Avenue Southeast, Washington"
298,38.8360918,-76.9846477,Greater Southeast Community: Randall Joseph C MD,"1310 Southern Avenue Southeast # 308, Washington"
299,38.835044,-76.98388299999999,"Dr. Patrik L. Johansson, MD","1310 Southern Avenue Southeast #200, Washington"
300,38.8360918,-76.9846477,Nsubuga Hudson K,"1310 Southern Avenue Southeast # 308, Washington"
301,38.8360918,-76.9846477,Cook Howard P Do,"1310 Southern Avenue Southeast # 130, Washington"
302,38.8359393,-76.9849936,"Robert L. Coleman, Crna","1310 Southern Avenue South East, Washington, DC 20032, Washington"
303,38.98686359999999,-77.0020614,"Keith Lindgren, MD","7901 Maple Avenue, Takoma Park"
304,38.897156,-77.047195,Washington Surgical Clinic,"2112 F Street Northwest #400, Washington"
305,38.8971169,-77.0471544,Braun III Martin MD,"2112 F Street Northwest #701, Washington"
306,38.8971169,-77.0471544,Bernad Peter G MD,"2112 F Street Northwest #303, Washington"
307,38.8971542,-77.04719539999999,Greenberg Richard D MD,"2112 F Street Northwest #604, Washington"
308,38.8971556,-77.0471946,"Joseph Jeral, MD","2112 F Street Northwest #502, Washington"
309,38.8971338,-77.0471365,"Sylvia R Medley, MD, MPH (Optimal Preventive Medicine, PLLC)","2112 F Street Northwest, Washington"
310,38.897026,-77.04717699999999,Braun Dermatology & Skin Cancer Center,"2112 F Street Northwest #701, Washington"
311,38.8971542,-77.04719539999999,Pain Management Institute,"2112 F Street Northwest SUITE 802A, Washington"
312,38.8971338,-77.0471365,Washington Womens Wellness Center,"2112 F Street Northwest, Washington"
313,38.8971102,-77.0471524,"Dr. Alicia D. Braun, MD","2112 F Street Northwest Ste 701, Washington"
314,38.8972128,-77.04691820000001,Neurology Services Inc,"2112 F Street Northwest Suite 303, Washington"
315,38.8971542,-77.04719539999999,Howard A Hoffman Md,"2112 F Street Northwest, Washington"
316,38.8971338,-77.0471365,"Dr. Renuka Darolia, MD","1133 21st Street Northwest, Washington"
317,38.8971338,-77.0471365,"Dr. Ellen M. Whitaker, MD","2112 F Street Northwest, Washington"
318,38.8971542,-77.04719539999999,Optimal Preventive Medicine,"2112 F Street Northwest, Washington"
319,38.8971556,-77.0471946,Dr. Stephanie Johnson,"2112 F Street Northwest Suite 303, Washington"
320,38.8971542,-77.04719539999999,Continuity Care Center,"2112 F Street Northwest #603, Washington"
321,38.8940648,-77.0115289,Junius C. McElveen Jr.,"51 Louisiana Avenue Northwest, Washington"
322,38.8967775,-77.01931189999999,"Dr. Harvey V. Fineberg, MD","500 5th Street Northwest, Washington"
323,38.8947217,-77.0301381,"Dr. Robert E. Ferris, DO","1300 Pennsylvania Avenue Northwest, Washington"
324,38.969569,-76.95315599999999,"Gaby Tesfaye, MD | Kaiser Permanente","6525 Belcrest Road, Hyattsville"
325,38.9308974,-76.9216079,"Dr. Ning Jiang, MD","3001 Hospital Drive, Cheverly"
326,38.9308974,-76.9216079,"Dr. Rebecca L. Briere, MD","3001 Hospital Drive, Cheverly"
327,38.9308974,-76.9216079,"Dr. Maofu Fu, MD","3001 Hospital Drive, Cheverly"
328,38.9308974,-76.9216079,"Dr. Paul J. Delporto, MD","3001 Hospital Drive, Cheverly"
329,38.9437638,-76.99157310000001,Providence Hospital: Hoyos Francisco F MD,"1150 Varnum Street Northeast, Washington"
330,38.9437638,-76.99157310000001,Providence Hospital: Kotzur Andreas MD,"1150 Varnum Street Northeast, Washington"
331,38.9437638,-76.99157310000001,Providence Hospital: Asiedu Akua A MD,"1150 Varnum Street Northeast, Washington"
332,38.9964988,-76.90662669999999,Delaney Margaret MD,"6201 Greenbelt Road L1-3, College Park"
333,38.9966411,-76.9065054,University Psycological Center: Fernbach Harvey MD,"6201 Greenbelt Road # U18, Berwyn Heights"
334,38.969569,-76.95315599999999,"Mayme Williams, MD | Kaiser Permanente","6525 Belcrest Road, Hyattsville"
335,38.9308974,-76.9216079,"Dr. Madhubindu Musunuru, MD","3001 Hospital Drive, Cheverly"
336,38.9966411,-76.9065054,"Med-Ped Health Care, LLC","6201 Greenbelt Road Ste M16, Berwyn Heights"
337,39.02315499999999,-76.97922,Hill Pediatric Dentistry,"10230 New Hampshire Avenue, Silver Spring"
338,38.99648999999999,-76.90662499999999,College Park Foot Center,"6201 Greenbelt Road, Berwyn Heights"
339,38.9966411,-76.9065054,Ajayi Adebowale I MD,"6201 Greenbelt Road # M18, Berwyn Heights"
340,38.9964147,-76.906728,"Dhirgham Kshash, M.D.","6201 Greenbelt Road Ste M16, College Park"
341,38.9964988,-76.90662669999999,"Dr. Barry H. Epstein, MD","6201 Greenbelt Road U16, Berwyn Heights"
342,38.9966933,-76.9066513,"Express Healthcare - Eman Al-Samrrai, M.D.","6201 Greenbelt Road Ste M15, Berwyn Heights"
343,38.9964147,-76.906728,CP&A College Park - Children's National Health System,"6201 Greenbelt Road L1, College Park"
344,38.9964117,-76.90661039999999,"Dr. Alphonsus Okoli, MD (Capital Inhospital Consultants and Internal Medicine)","Suite what?, 6201 Greenbelt Road, Berwyn Heights"
345,38.9966411,-76.9065054,Simmons Leslie M MD,"6201 Greenbelt Road, Berwyn Heights"
346,38.99648999999999,-76.90662499999999,"Dr. Kimberly M. Campbell-Arrendell, MD","6201 Greenbelt Road Suite U8a, Berwyn Heights, MD 20740, College Park"
347,38.9966411,-76.9065054,Khan Ahmad N MD,"6201 Greenbelt Road # U18, Berwyn Heights"
348,38.99658609999999,-76.9066108,"Med-Ped Health Care - Maurice N. Atiyeh, M.D.","6201 Greenbelt Road M16, Berwyn Heights"
349,38.9965987,-76.90659480000001,"Capital Inhospital Consultants and Internal Medicine, Inc. -Alphonsus Okoli, MD","7525 Greenway Center Drive, Suite#110"
350,38.9966411,-76.9065054,"Svetlana Malinsky, DPM (College Park Foot Center)","6201 Greenbelt Road, College Park"
351,38.9964147,-76.906728,Ihedioha Naomi M DDS,"6201 Greenbelt Road M7, Berwyn Heights"
352,38.9966454,-76.90663289999999,"Melvin Feldman, MD","6201 Greenbelt Road, Berwyn Heights"
353,38.9965986,-76.90659529999999,"Dr. Dan G. Glaser, MD","6201 Greenbelt Road, Berwyn Heights"
354,38.9965018,-76.9064025,"Dr. Stacy D. Scott-Mckinney, MD","6201 Greenbelt Road, Berwyn Heights"
355,38.9966411,-76.9065054,Children's Pediatricians Associates: Mc Millan Lakeischa W MD,"6201 Greenbelt Road # M7, Berwyn Heights"
356,38.99639,-76.906863,"Salvador Sylvester, M.D.","6201 Greenbelt Road Ste M16, Berwyn Heights"
357,38.9991341,-76.89662609999999,"Atlas & Spine Center of Greater Washington, P.C.","7850 Walker Drive # 110, Greenbelt"
358,38.969569,-76.95315599999999,"Ellen Finkelman, MD | Kaiser Permanente","6525 Belcrest Road, Hyattsville"
359,38.9966411,-76.9065054,"Dr. Ikechi F. Okwara, MD","6201 Greenbelt Road # U15, Berwyn Heights"
360,38.9919842,-76.88140299999999,Turkewitz Stuart J MD,"7500 Greenway Center Drive # 430, Greenbelt"
361,38.9921693,-76.8813861,Trifoglio Stephanie MD,"7500 Greenway Center Drive # 430, Greenbelt"
362,38.9915515,-76.88253739999999,Ayers & Ford Pa Internal Med,"7474 Greenway Center Drive, Greenbelt"
363,38.9966411,-76.9065054,"Maryland Oral Surgery Associates: Drs. Nathan, Stark, Griffith, and Kashyap","6201 Greenbelt Road, Berwyn Heights"
364,38.979048,-76.9373461,"Carisa Oyebanjo, LCPC","7305 Baltimore Avenue #307, College Park"
365,38.979048,-76.9373461,HMS Therapy Services,"7305 Baltimore Avenue #307, College Park"
366,38.96950570000001,-76.9531342,"Dr. Edward C. Cartwright, MD","6525 Belcrest Road, Hyattsville"
367,38.9697025,-76.9530273,Johnson Pediatric Dentistry,"6525 Belcrest Road # 290, Hyattsville"
368,38.969569,-76.95315599999999,"Hanadi Shamkhani, MD | Kaiser Permanente","6525 Belcrest Road, Hyattsville"
369,38.9966411,-76.9065054,"Dr. Rosaline O. Langley-Fraser, MD","6201 Greenbelt Road # L5, Berwyn Heights"
370,38.969569,-76.95315599999999,"Dr. Raymon K. Nelson, MD","6525 Belcrest Road #220, Hyattsville"
371,38.969569,-76.95315599999999,"Teresa Allen, MD | Kaiser Permanente","6525 Belcrest Road, Hyattsville"
372,38.969569,-76.95315599999999,"Chevonne Salmon, MD | Kaiser Permanente","6525 Belcrest Road, Hyattsville"
373,38.9694779,-76.95287359999999,"Dr. Nirupama D. Mitikiri, MD","6525 Belcrest Road, Hyattsville"
374,38.9789478,-76.9370735,Berard & Associates,"7305 Baltimore Avenue # 107, College Park"
375,38.86992,-76.84801499999999,Dental One Associates at Steeplechase,"9141 Alaking Court Ste 107, Capitol Heights"
376,38.852379,-76.8966219,Kool Smiles Dentist,"6471 Marlboro Pike, District Heights"
377,38.8700131,-76.8475789,"Dr. Sheryl R. Ashton-Jones, MD","9141 Alaking Court, Capitol Heights"
378,38.8907763,-76.8555087,"Dr. Victoria G. Venida, MD","8700 Central Avenue #203, Landover"
379,38.89119520000001,-76.9375067,Unity Healthcare East-River: Chase Lawton Kisha MD,"123 45th Street Northeast, Washington"
380,38.89119520000001,-76.9375067,Unity Healthcare East-River: Spoor Lori A DO,"123 45th Street Northeast, Washington"
381,38.89119520000001,-76.9375067,Unity Healthcare East-River: Riley Monica L MD,"123 45th Street Northeast, Washington"
382,38.8911618,-76.9374809,Gwathney Jamal K MD,"123 45th Street Northeast, Washington"
383,38.8907763,-76.8555087,Ashton-Jones Sheryl R MD,"8700 Central Avenue # 203, Landover"
384,38.8907763,-76.8555087,Largo Pediatrics,"8700 Central Avenue # 203, Landover"
385,38.8516013,-76.9189592,Sunset Family Medical Center: Braswell Betty T MD,"5111 Silver Hill Road, Suitland"
386,38.89078050000001,-76.85555160000001,"John E. Bubser, DPM","8700 Central Avenue #105, Hyattsville"
387,38.8692897,-76.89255440000001,Greater Baden Medical Services WIC Center,"1472 Addison Road South, Capitol Heights"
388,38.8907546,-76.8554747,"Dr. Joan D. Shapiro, MD","8700 Central Avenue, Hyattsville"
389,38.8907546,-76.8554747,"Emmanuel Esianor, DO","8700 Central Avenue, Hyattsville"
390,38.8907546,-76.8554747,"Dr. Adora N. Otiji, MD","8700 Central Avenue #100, Hyattsville"
391,38.8936752,-76.8507138,Psycho Therapeutic Services,"337 Brightseat Road # 107, Landover"
392,38.8932405,-76.85061259999999,People Encouraging People,"337 Brightseat Road # 201, Hyattsville"
393,38.8986099,-76.9259087,Cara House,"5140 Nannie Helen Burroughs Avenue Northeast, Washington"
394,38.9099203,-76.855127,"MD MEDICAL, INC","8816 Jericho City Drive, Landover"
395,38.8692379,-76.892516,"Dr. Eugene C. Taylor Jr, MD","1458 Addison Road South, Capitol Heights"
396,38.89119520000001,-76.9375067,Johnson Yeneisha S MD,"123 45th Street Northeast, Washington"
397,38.8531984,-76.8960821,Lake Forest Foot & Ankle,"6400 Marlboro Pike, District Heights"
398,38.8531809,-76.89607819999999,"Michael L. Michetti, DPM","6400 Marlboro Pike, District Heights"
399,38.89401869999999,-76.91112989999999,Presidential Pediatric Dentistry and Orthodontics,"350 Eastern Avenue Northeast, Washington"
400,38.897187,-76.91441499999999,"Dr. John Syphax, MD","525 Eastern Avenue Northeast, Capitol Heights"
401,38.89821679999999,-76.9463242,"Dr. Howard D. Wood, MD","4121 Minnesota Avenue Northeast, Washington"
402,38.9023641,-76.8520702,Vascular Access Centers,"1019 Brightseat Road, Landover"
403,38.89119520000001,-76.9375067,Hendje Abayomi MD,"123 45th Street Northeast, Washington"
404,38.8907763,-76.8555087,Special care dentistry,"8700 Central Avenue, Landover"
405,38.9072512,-76.84579509999999,Children First LLC,"1300 Caraway Court, Upper Marlboro"
406,38.9142887,-76.88422779999999,Healthy Dental,"7023 Martin Luther King Junior Highway, Hyattsville"
407,38.8531809,-76.89607819999999,Doctors Community Practices at District Heights,"6400 Marlboro Pike, District Heights"
408,38.8531809,-76.89607819999999,Dr. Edith Rayfield,"6400 Marlboro Pike, District Heights"
409,38.89116239999999,-76.9374821,"Dr. Katherine G. Hurd, MD","123 45th Street Northeast, Washington"
410,38.8560885,-76.91118349999999,Healthy Dental,"5570 Silver Hill Road, District Heights"
411,38.88191870000001,-76.84760539999999,Vincent H. Davis DDS,"9146 Edgeworth Drive, Capitol Heights"
412,38.85141309999999,-76.8900774,"Jessica L. Nash, ATC","6800 Marlboro Pike, Forestville, MD 20747, District Heights"
413,38.898465,-76.92915599999999,Okoji Godswill O MD,"5000 Nannie Helen Burroughs Avenue Northeast, Washington"
414,38.8329156,-76.9785732,"Vesta, Inc.","4615 Wheeler Hills Road, Oxon Hill"
415,38.835044,-76.98388299999999,"Dr. Joseph O. Nnadike, MD","1310 Southern Avenue Southeast, Washington"
416,38.835044,-76.98388299999999,Greater Southeast Community: Otue-Agugua Chinwe MD,"1310 Southern Avenue Southeast # 308, Washington"
417,38.835044,-76.98388299999999,Javaid Mohammed H MD,"1310 Southern Avenue Southeast, Washington"
418,38.8359393,-76.9849936,"Akintoye O. Shoetan, MD","1310 Southern Avenue Southeast, Washington"
419,38.8359393,-76.9849936,"Dr. Russom B. Ghebrai, MD","1310 Southern Avenue Southeast, Washington"
420,38.8360918,-76.9846477,"Pamella Jarmond, LICSW","1310 Southern Avenue Southeast, Washington"
421,38.8360918,-76.9846477,Asenso Emmanuel K,"1310 Southern Avenue Southeast, Washington"
422,38.8360918,-76.9846477,Anokam Theresa A,"1310 Southern Avenue Southeast # 308, Washington"
423,38.803548,-76.981349,Community Physical Medicine: Hudson Drakes G,"6188 Oxon Hill Road, Oxon Hill"
424,38.8275697,-76.91929689999999,"Joshua Holloway, MD | Kaiser Permanente","5100 Auth Way, Camp Springs"
425,38.8278304,-76.9194634,Kaiser Permanente Health Care: Taylor Eugene C MD,"5100 Auth Way, Suitland"
426,38.8278304,-76.9194634,Kaiser Permanente Health Care: Mc Gibbon Karen Esthe MD,"5100 Auth Way, Suitland"
427,38.8278304,-76.9194634,Kaiser Permanente Health Care: Kebede Sosena MD,"5100 Auth Way, Suitland-Silver Hill"
428,38.8275489,-76.9192375,Nikoi Nana Tiaa Md,"5100 Auth Way, Suitland"
429,38.8278304,-76.9194634,Kaiser Permanente Health Care: Yusuf Said A MD,"5100 Auth Way, Suitland"
430,38.8278304,-76.9194634,"Dr. Dennis Amini, MD","5100 Auth Way, Suitland"
431,38.8275489,-76.9192375,Kaiser Permanente: Desai Shital MD,"5100 Auth Way, Suitland"
432,38.8275489,-76.9192375,"Dr. Grace E. Mcgibbon, MD","5100 Auth Way, Suitland"
433,38.8276431,-76.9192662,"Tinisha Cheatham, DO | Kaiser Permanente","5100 Auth Way, Camp Springs"
434,38.827919,-76.919485,"Crystal Yeldell, MD | Kaiser Permanente","5100 Auth Way, Camp Springs"
435,38.8275697,-76.91929689999999,"Omid Rashidi, MD | Kaiser Permanente","5100 Auth Way, Camp Springs"
436,38.8278304,-76.9194634,Kaiser Permanente Health Care: Kong Melvin W MD,"5100 Auth Way, Suitland"
437,38.8275697,-76.91929689999999,"Deborah Thompson, MD | Kaiser Permanente","5100 Auth Way, Camp Springs"
438,38.822181,-76.91954299999999,"Ayanna Marie Beard, MD","5100 Auth Way, Camp Springs"
439,38.8278304,-76.9194634,Chinweze Ebelechukwu MD,"5100 Auth Way, Suitland"
440,38.829758,-76.9098999,Malouf Eye Center,"4400 Telfair Boulevard Suite D, Camp Springs"
441,38.8278304,-76.9194634,"Dr. Daniel R. Glor, MD","5100 Auth Way, Suitland"
442,38.8278304,-76.9194634,"Dr. Ella Popeliansky, MD","5100 Auth Way, Suitland"
443,38.8276038,-76.9192453,"Sherma Jack-Brisseau, NUTRI","5100 Auth Way, Camp Springs"
444,38.8278304,-76.9194634,"Benilda N. Shaheed, LICSW","5100 Auth Way, Suitland"
445,38.8278304,-76.9194634,"Dr. Muzna Adil, MD","5100 Auth Way, Suitland"
446,38.8278304,-76.9194634,"Cheryl J. Joseph-Sonceau, OD","5100 Auth Way, Suitland"
447,38.8278304,-76.9194634,"Marie A. Minor, PhD","5100 Auth Way, Suitland"
448,38.8278304,-76.9194634,"LaFonda M. Lewis, LCPC","5100 Auth Way, Suitland"
449,38.8278304,-76.9194634,"Deneen C. Cephas, RN","5100 Auth Way, Suitland"
450,38.8276038,-76.9192453,"Allan L. Korff, CRNP","5100 Auth Way, Camp Springs"
451,38.8276038,-76.9192453,"Caroline T. Shields, CRNP","5100 Auth Way, Camp Springs"
452,38.8276038,-76.9192453,"Donna Mcconathy, CRNP","5100 Auth Way, Camp Springs"
453,38.829758,-76.9098999,Malouf George MD,"4400 Telfair Boulevard, Camp Springs"
454,38.8276038,-76.9192453,"Bridgid S. Wiredu, CRNP","5100 Auth Way, Camp Springs"
455,38.8278304,-76.9194634,"Helen M. Simms-Allen, LPN","5100 Auth Way, Suitland"
456,38.8278304,-76.9194634,"Dr. Darryl G. Dillman, MD","5100 Auth Way, Suitland"
457,38.8418106,-76.8746634,Moore OBGYN,"7610 Pennsylvania Avenue #305, Forestville"
458,38.80833760000001,-76.899163,"Dr. Rodeen Rahbar, MD","5801 Allentown Road Suite 502, Camp Springs"
459,38.806768,-76.9084376,Kasier Permanente: Majette Mario L MD,"6104 Old Branch Avenue, Temple Hills"
460,38.806768,-76.9084376,"Reginald Wallen, MD | Kaiser Permanente","6104 Old Branch Avenue, Temple Hills"
461,38.8079682,-76.89638959999999,"Dr. Nicole Ballinger, DO","1050 West Perimeter Road, Joint Base Andrews"
462,38.8079682,-76.89638959999999,Malcolm Grow Medical Center: Balog Daniel MD,"1050 West Perimeter Road, Joint Base Andrews"
463,38.80838899999999,-76.899129,Southern MD Medical Group,"5801 Allentown Road Ste 400, Camp Springs"
464,38.8079682,-76.89638959999999,Usaf Medical Center: Morganstein Joshua C MD,"1050 West Perimeter Road, Joint Base Andrews"
465,38.8079682,-76.89638959999999,"Dr. Stephen J. Titus, MD","1050 West Perimeter Road, Joint Base Andrews"
466,38.806768,-76.9084376,"Jenny John, MD | Kaiser Permanente","6104 Old Branch Avenue, Temple Hills"
467,38.806768,-76.9084376,"MONICA RILEY, MD","6104 Old Branch Avenue, Temple Hills"
468,38.806768,-76.9084376,Kasier Permanente: Hong Diana L MD,"6104 Old Branch Avenue, Temple Hills"
469,38.806768,-76.9084376,"Tami Collins, MD | Kaiser Permanente","6104 Old Branch Avenue, Temple Hills"
470,38.806768,-76.9084376,"Sabine Balzora-Jackson, MD | Kaiser Permanente","6104 Old Branch Avenue, Temple Hills"
471,38.806768,-76.9084376,Kasier Permanente: Hoang Thuy D DO,"6104 Old Branch Avenue, Temple Hills"
472,38.784183,-76.89706000000001,Tellawi Sam MD,"7700 Old Branch Avenue # B102, Clinton"
473,38.808337,-76.899208,HEEL PAIN CENTER OF MARYLAND - The Heel Pain Specialists,"5801 Allentown Road #305, Camp Springs"
474,38.806768,-76.9084376,"Irvin Maduro, MD | Kaiser Permanente","6104 Old Branch Avenue, Temple Hills"
475,38.8376268,-76.9452483,Sterling Optical,"Iverson Mall, 3889 Branch Avenue, Temple Hills"
476,38.806768,-76.9084376,Kasier Permanente: Dike Chinyere MD,"6104 Old Branch Avenue, Temple Hills"
477,38.78441889999999,-76.8970014,Clinton Dental Care,"7700 Old Branch Avenue # E102, Clinton"
478,38.81743000000001,-76.84263899999999,Children's National Med Center: Henry Rosemarie W MD,"9440 Pennsylvania Avenue # 210, Upper Marlboro"
479,38.81742999999999,-76.8426389,Sehgal Sona MD,"9440 Marlboro Pike #210, Upper Marlboro"
480,38.8079682,-76.89638959999999,Malcolm Grow Med Psychotherapy Department,"1050 West Perimeter Road, Joint Base Andrews"
481,38.806768,-76.9084376,"Hien Nguyen, MD | Kaiser Permanente","6104 Old Branch Avenue, Temple Hills"
482,38.806768,-76.9084376,Kaiser Permanente Health Care: Polonsky Amy MD,"6104 Old Branch Avenue, Temple Hills"
483,38.8079682,-76.89638959999999,Malcolm Grow Hospital Gas,"1050 West Perimeter Road, Joint Base Andrews"
484,38.8079682,-76.89638959999999,Andrew's Afb Family Health Clinic,"1050 West Perimeter Road, Joint Base Andrews"
485,38.806768,-76.9084376,Kasier Permanente: Husain Zafar MD,"6104 Old Branch Avenue, Temple Hills"
486,38.8079682,-76.89638959999999,"Jeremy J. Barnett, PA","1050 West Perimeter Road, Joint Base Andrews"
487,38.8079682,-76.89638959999999,"Dr. Wilbur Peralta, MD","1050 West Perimeter Road, Joint Base Andrews"
488,38.9437638,-76.99157310000001,"Dr. Laura G. Fox, MD","1150 Varnum Street Northeast, Washington"
489,38.9437638,-76.99157310000001,"Dr. Robert Hamm, MD","1150 Varnum Street Northeast, Washington"
490,38.9437638,-76.99157310000001,Metropolitan Radiology Associates,"1150 Varnum Street Northeast, Washington"
491,38.9437638,-76.99157310000001,Providence Hospital-Er: Strudwick William J MD,"1150 Varnum Street Northeast, Washington"
492,38.9437638,-76.99157310000001,Nunez-Brito Rosario MD,"1150 Varnum Street Northeast, Washington"
493,38.9437638,-76.99157310000001,"Cheryl L. Wilson, Crna","1150 Varnum Street Northeast, Washington"
494,38.9437638,-76.99157310000001,"Debra Keith, CNM","1150 Varnum Street Northeast, Washington"
495,38.9437638,-76.99157310000001,"Dr. Peter Eichacker, MD","1150 Varnum Street Northeast, Washington"
496,38.944006,-76.992453,Providence Hospital: Lastrapes Scott C MD,"1150 Varnum Street Northeast # 300, Washington"
497,38.9437638,-76.99157310000001,"Dr. Gary Coke, MD","1150 Varnum Street Northeast, Washington"
498,38.9439235,-76.9917274,"M. Cameron Ghafouri, MD","DePaul Professional Building, 1160 Varnum Street Northeast #011, Washington"
499,38.9437638,-76.99157310000001,"Dr. John D. Morrissey, MD","1150 Varnum Street Northeast, Washington"
500,38.9437638,-76.99157310000001,Capitol Health Management Services LLC,"1150 Varnum Street Northeast, Washington"
501,38.9437638,-76.99157310000001,"Dr. Keith A. Hunter, MD","1150 Varnum Street Northeast, Washington"
502,38.9437638,-76.99157310000001,"Dr. Tom V. Thomasian, MD","1150 Varnum Street Northeast, Washington"
503,38.9440082,-76.9924917,Providence Hospital: Elliott Tollie B MD,"1150 Varnum Street Northeast, Washington"
504,38.9437638,-76.99157310000001,"Anna Quast, NP","1150 Varnum Street Northeast, Washington"
505,38.9437638,-76.99157310000001,Providence Hospital: El Fihri Nezha MD,"1150 Varnum Street Northeast, Washington"
506,38.9437638,-76.99157310000001,"Rachel N. Gaines-Mbachu, PA","1150 Varnum Street Northeast, Washington"
507,38.9437638,-76.99157310000001,"Dr. Tahir Manzoor, MD","1150 Varnum Street Northeast, Washington"
508,38.9437638,-76.99157310000001,"Dr. Ana M. Ibrado, MD","1150 Varnum Street Northeast, Washington"
509,38.9437638,-76.99157310000001,Providence Hospital: Debra Kwasi A MD,"1150 Varnum Street Northeast, Washington"
510,38.9437638,-76.99157310000001,Providence Hospital: Mohess Denise T MD,"1150 Varnum Street Northeast, Washington"
511,38.9437638,-76.99157310000001,"James Flaherty, AA","1150 Varnum Street Northeast, Washington"
512,38.9437638,-76.99157310000001,"Damon Green, MD","1150 Varnum Street Northeast, Washington"
513,38.9437638,-76.99157310000001,Providence Hospital: Tsao Cecillia C MD,"1150 Varnum Street Northeast, Washington"
514,38.9437638,-76.99157310000001,Providence Hospital: Quant-Gonzalez Javier MD,"1150 Varnum Street Northeast, Washington"
515,38.9437649,-76.9918509,"Shadi Soufi, MD","1140 Varnum Street Northeast #2, Washington"
516,38.9437638,-76.99157310000001,Providence Hospital: Ruiz Maria Paz D MD,"1150 Varnum Street Northeast, Washington"
517,38.98692190000001,-77.0020851,"Paul Massimiano, MD","7901 Maple Avenue Suite A, Takoma Park"
518,38.9855621,-77.00192559999999,"Benjamin M. Holquist, CRNP","7600 Carroll Avenue, Takoma Park"
519,38.9855621,-77.00192559999999,Washington Adventist Hospital: Stern Lea MD,"7600 Carroll Avenue, Takoma Park"
520,38.9855621,-77.00192559999999,Washington Adventist Hospital: Garcia John F MD,"7600 Carroll Avenue, Takoma Park"
521,38.9855621,-77.00192559999999,Washington Adventist Hospital: Burton Nelson A MD,"7600 Carroll Avenue, Takoma Park"
522,38.9855621,-77.00192559999999,Washington Adventist Hospital: Ayene Adamu MD,"7600 Carroll Avenue, Takoma Park"
523,38.9855621,-77.00192559999999,Washington Adventist Hospital: Rodriguez David Anton DO,"7600 Carroll Avenue, Takoma Park"
524,38.9855621,-77.00192559999999,Washington Adventist Hospital: Liang Haiying MD,"7600 Carroll Avenue, Takoma Park"
525,38.9855621,-77.00192559999999,"Weldemariam Mezghebe, PA","7600 Carroll Avenue, Takoma Park"
526,38.9855621,-77.00192559999999,Washington Adventist Hospital: Lingelbach Jane M MD,"7600 Carroll Avenue, Takoma Park"
527,38.9855621,-77.00192559999999,Washington Adventist Hospital: Xiayan Weijia MD,"7600 Carroll Avenue, Takoma Park"
528,38.9855621,-77.00192559999999,Washington Adventist Hospital: Rumore-Farris Phyllis,"7600 Carroll Avenue, Takoma Park"
529,39.0231158,-76.9793376,"Pirooz Mofrad, MD","10230 New Hampshire Avenue, Silver Spring"
530,39.02315530000001,-76.97922009999999,Maternal Fetal Associates,"10230 New Hampshire Avenue # 209, Silver Spring"
531,39.02315530000001,-76.97922009999999,"Mohammed Elkousy MD, FACOG","10230 New Hampshire Avenue, Silver Spring"
532,39.02315499999999,-76.97922,Washington Heart Rhythm Associates,"10230 New Hampshire Avenue Suite 204, Silver Spring"
533,38.9855452,-77.00191319999999,Adventist HealthCare Washington Adventist Hospital: Capital Internal Medicine,"7600 Carroll Avenue, Takoma Park"
534,38.9308938,-76.9216079,"Weinbaum, Paul MD - Prince Georges Hospital","3001 Hospital Drive, Cheverly"
535,38.9308938,-76.9216079,Nwaogwugwu Uzoamaka MD,"3001 Hospital Drive, Cheverly"
536,38.9308938,-76.9216079,Egwim Onyekachi MD,"3001 Hospital Drive, Cheverly"
537,38.937126,-77.180819,"PartnerMD, Kaleen Kitay, M.D.","6862 Elm Street #700, McLean"
538,38.9974266,-77.1104762,"Amirali Nader, MD","8600 Old Georgetown Road, Bethesda"
539,38.9974266,-77.1104762,Suburban Hospital Inc: Hanna John David MD,"8600 Old Georgetown Road, Bethesda"
540,38.9974266,-77.1104762,Suburban Hospital Inc: Gincherman Yevgeniy MD,"8600 Old Georgetown Road, Bethesda"
541,38.950079,-77.1197415,"Sandra Delistathis, MD","4701 Sangamore Road N270, Bethesda"
542,38.9974266,-77.1104762,"Yuneng Li, MD","8600 Old Georgetown Road, Bethesda"
543,38.9974266,-77.1104762,Suburban Hospital Inc: Strauss Philip L MD,"8600 Old Georgetown Road, Bethesda"
544,38.93635980000001,-77.180774,"Aesthetic Center For Plastic Surgery: Gloria Duda, MD","6845 Elm Street #708, McLean"
545,38.9974266,-77.1104762,"Kimberly Zuzak, MD","8600 Old Georgetown Road, Bethesda"
546,38.9974266,-77.1104762,"Dr. Paul D. Radecki, MD","8600 Old Georgetown Road, Bethesda"
547,38.9972577,-77.110582,"Frederick Thaler, MD","8600 Old Georgetown Road, Bethesda"
548,38.9974266,-77.1104762,"Drs. Groover, Christie, and Merritt Radiology","8600 Old Georgetown Road, Bethesda"
549,38.9974266,-77.1104762,NIH Heart Center,"8600 Old Georgetown Road, Bethesda"
550,38.9974266,-77.1104762,"Natasha P. Haag, MD, MS","8600 Old Georgetown Road, Bethesda"
551,38.9974266,-77.1104762,Suburban Hospital Inc: Shay Peter A MD,"8600 Old Georgetown Road, Bethesda"
552,38.9974266,-77.1104762,"Thomas M. Herndon, MD","8600 Old Georgetown Road, Bethesda"
553,38.9974266,-77.1104762,"Shanthi M. Nadar, MD","8600 Old Georgetown Road, Bethesda"
554,38.9974266,-77.1104762,Suburban Hospital Inc: Hanowell Susan J MD,"8600 Old Georgetown Road, Bethesda"
555,38.9974266,-77.1104762,Song Shlee S MD,"8600 Old Georgetown Road, Bethesda"
556,38.9974266,-77.1104762,Suburban Hospital: Holt Albert E MD,"8600 Old Georgetown Road, Bethesda"
557,38.9974266,-77.1104762,Suburban Hospital: Vogt Mark Dougla MD,"8600 Old Georgetown Road, Bethesda"
558,38.9974266,-77.1104762,Suburban Hospital: Study Robert Edwa MD,"8600 Old Georgetown Road, Bethesda"
559,38.94607069999999,-77.097774,"Frank S Asbhurn Jr, MD","4910 Massachusetts Avenue Northwest #21, Washington"
560,38.938006,-77.1763465,Pasicov Benjamin MD,"1340 Old Chain Bridge Road, McLean"
561,38.9974266,-77.1104762,"Suburban Hospital: Michael A. Jach, MD","8600 Old Georgetown Road, Bethesda"
562,38.9974266,-77.1104762,Suburban Hospital Car,"8600 Old Georgetown Road, Bethesda"
563,38.9974266,-77.1104762,"Dr. Robert J. Rothstein, MD","8600 Old Georgetown Road, Bethesda"
564,38.97015650000001,-77.1296929,"William A. Davis, M.D., FACP, FIDSA","6400 Goldsboro Road #330, Bethesda"
565,38.94607069999999,-77.097774,"Melanie J Buttross, MD","4910 Massachusetts Avenue Northwest #21, Washington"
566,38.9974266,-77.1104762,"Dr. Ivan O. Rosas, MD","8600 Old Georgetown Road, Bethesda"
567,38.9974266,-77.1104762,"Eric Park, MD","8600 Old Georgetown Road, Bethesda"
568,39.024065,-77.1345845,"Dr. Andrea C. Karp, MD","10215 Fernwood Road, Bethesda"
569,39.024065,-77.1345845,"Deena Kleinerman, MD","Camalier Building, 10215 Fernwood Road #250, Bethesda"
570,39.0015184,-77.0933175,"Kelly L McCoy, MD","8901 Wisconsin Avenue, Bethesda"
571,39.0018413,-77.0944268,National Naval Medical Center: Nowrouzzadeh Farzad MD,"8901 Wisconsin Avenue, Bethesda"
572,39.03288269999999,-77.07596319999999,"William Brems, MD | Kaiser Permanente","10810 Connecticut Avenue, Kensington"
573,39.0240563,-77.1348008,"Dr. Israel L. Alter, MD","10215 Fernwood Road #101, Bethesda"
574,39.024014,-77.1346557,"Dr. Alan R. Sheff, MD","10215 Fernwood Road Suite 50, Bethesda"
575,39.0240182,-77.13474149999999,"Dr. Lee R. Pennington, MD","10215 Fernwood Road Suite 50, Bethesda"
576,39.024065,-77.1345845,"Hallick, Dr. Galen D","10215 Fernwood Road, Bethesda"
577,39.0018413,-77.0944268,National Naval Medical Center: Smith Ronald Earl MD,"8901 Wisconsin Avenue, Bethesda"
578,39.0004833,-77.0933852,"Dr. Roxolana I. Horbowyj, MD","8901 Rockville Pike, Bethesda"
579,39.0018413,-77.0944268,National Naval Medical Center: Miller Donald L MD,"8901 Wisconsin Avenue, Bethesda"
580,39.0018413,-77.0944268,National Naval Medical Center: Lyons James J MD,"8901 Wisconsin Avenue, Bethesda"
581,38.99147499999999,-77.097132,Bethesda Physicians: Corson Audrey MD,"8120 Woodmont Avenue, Bethesda"
582,39.03288269999999,-77.07596319999999,"Panayiota Koroulakis, MD | Kaiser Permanente","10810 Connecticut Avenue, Kensington"
583,39.0329703,-77.0759137,"Deena Shapiro, MD | Kaiser Permanente","10810 Connecticut Avenue, Kensington"
584,39.0239863,-77.1336496,"Dr. Nizamuddin J. Maruf, MD","6410 Rockledge Drive, Bethesda"
585,39.0018413,-77.0944268,Radiation Oncology,"8901 Wisconsin Avenue, Bethesda"
586,39.0018413,-77.0944268,National Naval Medical Center: Ghurani Sawsan MD,"8901 Wisconsin Avenue, Bethesda"
587,39.004052,-77.101585,Levine Rodney MD,"9000 Rockville Pike # 9N222, Bethesda"
588,39.0018417,-77.094427,National Naval Medical Center: Wiersma Donald S MD,"8901 Wisconsin Avenue, Bethesda"
589,39.0004833,-77.0933852,"Dr. Patricia L. Mckay, MD","8901 Rockville Pike, Bethesda"
590,39.0004833,-77.0933852,"Dr. Robert E. Rosenbaum, MD","8901 Rockville Pike, Bethesda"
591,39.0018413,-77.0944268,National Naval Medical Center: Dorrance Kevin A MD,"8901 Wisconsin Avenue, Bethesda"
592,39.0406857,-77.11090800000001,TLC Laser Eye Centers,"11200 Rockville Pike #150, Rockville"
593,39.0004833,-77.0933852,"Dr. Arash Taleghani, MD","8901 Rockville Pike, Bethesda"
594,39.0032963,-77.0944631,Internal Medicine Clinic,"8901 Wisconsin Avenue, Bethesda"
595,39.0004833,-77.0933852,"Dr. Patrick S. Sipe, MD","8901 Rockville Pike, Bethesda"
596,38.9979177,-77.0945135,Kaime Elaine MD,"8901 Wisconsin Avenue, Bethesda"
597,39.0018413,-77.0944268,National Naval Medical Center: Tauber William B MD,"8901 Wisconsin Avenue, Bethesda"
598,39.0018413,-77.0944268,"Dr. Farhat H. Mirza, MD","8901 Wisconsin Avenue, Bethesda"
599,38.9456753,-77.09716,Spring Valley Pediatrics: Warfield Peter I MD,"4900 Massachusetts Avenue Northwest, Washington"
600,38.9456753,-77.09716,Spring Valley Peds: Shanahan Sheila MD,"4900 Massachusetts Avenue Northwest, Washington"
601,39.024065,-77.1345845,Capital Women's Care,"10215 Fernwood Road #250, Bethesda"
602,39.024598,-77.13323199999999,Dr. Daniel J. Valaik,"6420 Rockledge Drive Suite 2200, Bethesda"
603,39.0240563,-77.1348008,"George Bolen, MD","Camalier Building, 10215 Fernwood Road Suite 404, Bethesda"
604,39.0240563,-77.1348008,Krinn Elizabeth D MD,"Camalier Building, 10215 Fernwood Road #101, Bethesda"
605,39.024065,-77.134585,"Timothy Bhattacharyya, MD","Camalier Building, The Camalier Building, Fernwood Road #506, Bethesda"
606,39.0240057,-77.1346879,"Dr. Susan G. Baruch, MD","10215 Fernwood Road Suite 50, Bethesda"
607,39.0240563,-77.1348008,Capital Women's Care: Wolfgram Edward J MD,"10215 Fernwood Road # 101, Bethesda"
608,39.024027,-77.134647,Koroshetz Anne M MD,"10215 Fernwood Road # 620, Bethesda"
609,39.02403169999999,-77.1346274,"David W. Hirshfield, M.D.","Camalier Building, 10215 Fernwood Road #100, Bethesda"
610,39.024065,-77.1345845,"Agnes E. Holland, MD, Ph.D.","10215 Fernwood Road #103, Bethesda"
611,39.0237948,-77.1346935,Bethesda Retina,"10215 Fernwood Road, Bethesda"
612,39.024065,-77.1345845,"Dr. Cynthia A. King, MD","10215 Fernwood Road, Bethesda"
613,39.0240563,-77.1348008,Capital Women's Care: Orleans Ronald J MD,"10215 Fernwood Road # 101, Bethesda"
614,39.02402660000001,-77.13464689999999,Dr. S.M. Sastry Bethesda Retina LLC.,"Camalier Building, 10215 Fernwood Road #305, Bethesda"
615,39.02402660000001,-77.13464689999999,Alam Syeda N MD,"Camalier Building, 10215 Fernwood Road #101, Bethesda"
616,39.02402660000001,-77.13464689999999,"Dr. Alan A. Cohen, MD","10215 Fernwood Road #620, Bethesda"
617,39.0240821,-77.1347457,"J. Patrick Caulfield, MD","Camalier Building, The Camalier Building, Fernwood Road #506, Bethesda"
618,39.0240563,-77.1348008,Raja Geeta MD,"10215 Fernwood Road # 100, Bethesda"
619,39.0240563,-77.1348008,Capital Women's Care: Dominy Iris E MD,"10215 Fernwood Road # 101, Bethesda"
620,39.02402660000001,-77.13464689999999,"Jessica D. Korman, MD","10215 Fernwood Road #404, Bethesda"
621,39.014475,-77.185188,Cohen Max H MD,"8812 Twin Creek Court, Potomac"
622,38.9370753,-77.1808643,"Kimberly Houde, MD","6862 Elm Street #600, McLean"
623,38.9362204,-77.1779482,Skin & Laser Dermatology Center - McLean Va,"1359 Beverly Road, McLean"
624,38.9390092,-77.1765899,Audio Sync Hearing Center,"1320 Old Chain Bridge Road, McLean"
625,38.9370527,-77.1809128,"Jeanne Willis Shiffman, MD","6862 Elm Street #720, McLean"
626,38.93629469999999,-77.1807678,"Kenneth Karlin, M.D.","6845 Elm Street #611, McLean"
627,38.9365621,-77.17866640000001,"Laura A. Granato, PHD","1360 Beverly Road #200, McLean"
628,38.9379993,-77.1763326,McLean Immediate Care - Urgent Care,"1340 Old Chain Bridge Road, McLean"
629,38.9355477,-77.1797291,Kaplan Gary DO,"6829 Elm Street #300, McLean"
630,38.937031,-77.1809081,Capital Neurology Services,"6862 Elm Street Suite 450, McLean"
631,38.937999,-77.176333,Psychiatrist Amir Rehman MD,"1340 Old Chain Bridge Road #402, McLean"
632,38.9363338,-77.1808361,Barry J. Cohen PC,"6845 Elm Street #205, McLean"
633,38.9362946,-77.1807676,Women's Health Corporation,"6845 Elm Street #600, McLean"
634,38.936521,-77.17864,"Allergy & Asthma Associates, P.C. Loria Richard C M.D. and Courtney Jackson Blair, M.D.","1360 Beverly Road Suite 103, McLean"
635,38.9362946,-77.1807676,Washington Plastic Surgery Group,"6845 Elm Street #205, McLean"
636,38.9363105,-77.1807331,Dr. Kathleen D. Solomon M.D.,"6845 Elm Street #600, McLean"
637,38.9363105,-77.1807331,"Alagia, Damian P, MD","6845 Elm Street #600, McLean"
638,38.9374224,-77.1783011,"Amelia H. Bush, PhD","1350 Beverly Road, McLean"
639,38.9379993,-77.1763326,McLean Dental Center-Mclean Office,"1340 Old Chain Bridge Road, McLean"
640,38.936092,-77.182155,David Gordon Louis Daniel,"6858 Old Dominion Drive # 305, McLean"
641,38.9379993,-77.1763326,Mc Lean Immediate Care Inc: Rizvi Monique M MD,"1340 Old Chain Bridge Road # 101, McLean"
642,38.9363105,-77.1807331,Dr. Roma Akosua Edoo-Sowah M.D.,"6845 Elm Street #710, McLean"
643,38.9354869,-77.1787749,"Allergy and Asthma Center: Anita N. Wasan, MD, FACAAI, FAAAAI","6824 Elm Street Suite 120, McLean"
644,38.970111,-77.12969609999999,Balter Laurence B MD,"6400 Goldsboro Road #330, Bethesda"
645,38.93652919999999,-77.1786437,"Dr. Lillian M. Somner, DO","1360 Beverly Road, McLean"
646,38.97011180000001,-77.1296292,"Dr. Mark D Klaiman, M.D.","6400 Goldsboro Road #340, Bethesda"
647,38.93055349999999,-77.1780375,Heart & Vascular Center,"6801 Whittier Avenue, McLean"
648,38.970111,-77.12969609999999,Dr's Kane & Davis Associates PLLC,"6400 Goldsboro Road, Bethesda"
649,38.9362946,-77.1807676,Schwartz Anne C MD,"6845 Elm Street, McLean"
650,38.9789193,-77.1242156,"Dr. Robert N. Anthony, MD.","6901 Whittier Boulevard, Bethesda"
651,38.9311944,-77.1764022,"Carmen Vaughan, LCSW","6723 Whittier Avenue, McLean"
652,38.9388424,-77.1767471,Simpson III Frank B MD,"1320 Old Chain Bridge Road # 420, McLean"
653,38.9388046,-77.1768244,"Golnar A. Simpson, PHD","1320 Old Chain Bridge Road, McLean"
654,38.936322,-77.177948,"Amir Bajoghli, MD","1359 Beverly Road 2nd floor, McLean"
655,38.93555910000001,-77.17974860000001,"Dr. David C. Wang, DO","6829 Elm Street #300, McLean"
656,39.0393042,-77.0558245,Jeffries Eric M MD,"2730 University Boulevard West #410, Wheaton"
657,39.0479533,-77.12056919999999,Physician Associates: Medhane Saba MD,"6000 Executive Boulevard # 300, Rockville"
658,39.0392812,-77.0558219,"Alan K. Matsumoto, MD, FACP, FACR","2730 University Boulevard West #310, Silver Spring"
659,39.0479533,-77.12056919999999,Physician Associates: Jaffe Susan MD,"6000 Executive Boulevard # 300, Rockville"
660,39.0018413,-77.0944268,Cordoro Melanie,"8901 Wisconsin Avenue, Bethesda"
661,39.0018413,-77.0944268,Folio Les R Do,"8901 Wisconsin Avenue, Bethesda"
662,39.0018413,-77.0944268,"Dr. Julie M. Chen, MD","8901 Wisconsin Avenue, Bethesda"
663,39.0018413,-77.0944268,National Naval Medical Center: Gorman Gregory H MD,"8901 Wisconsin Avenue, Bethesda"
664,39.0018413,-77.0944268,National Naval Medical Center: Hutcheson-Tipt David Q MD,"8901 Wisconsin Avenue, Bethesda"
665,39.0018413,-77.0944268,National Naval Medical Center: Shmorhun Daniel P MD,"8901 Wisconsin Avenue, Bethesda"
666,39.0018413,-77.0944268,National Naval Medical Center: Hartwell Sr James MD,"8901 Wisconsin Avenue, Bethesda"
667,39.0018413,-77.0944268,National Naval Medical Center: Coyne Jr Philip E MD,"8901 Wisconsin Avenue, Bethesda"
668,39.0018413,-77.0944268,National Naval Medical Center: Dickerson William MD,"8901 Wisconsin Avenue, Bethesda"
669,39.0018413,-77.0944268,National Naval Medical Center: Denton Gerald D MD,"8901 Wisconsin Avenue, Bethesda"
670,39.0018413,-77.0944268,"Dr. Sarita D. Mobley, MD","8901 Wisconsin Avenue, Bethesda"
671,39.0018413,-77.0944268,National Naval Medical Center: Kravitz Michelle B MD,"8901 Wisconsin Avenue, Bethesda"
672,39.0148234,-77.0352494,Community Neonatal Associates,"1500 Forest Glen Road, Silver Spring"
673,39.0147079,-77.0347487,"Ryan J. Zucker, MD","1500 Forest Glen Road, Silver Spring"
674,39.01486670000001,-77.03533279999999,"Dr. Mary L. Keszler, MD","1500 Forest Glen Road, Silver Spring"
675,39.01486670000001,-77.03533279999999,Holy Cross Hospital: Yun Michael MD,"1500 Forest Glen Road, Silver Spring"
676,39.01486670000001,-77.03533279999999,Holy Cross Anesthesiolgy Associates: Bommakanti Radhika MD,"1500 Forest Glen Road, Silver Spring"
677,39.0148234,-77.0352494,Becker Jeffrey A MD,"1500 Forest Glen Road, Silver Spring"
678,39.0241603,-77.0433652,Baum Michael D MD,"2101 Medical Park Drive #101, Silver Spring"
679,39.0148957,-77.03415,"OB-GYN Associates: Dr. Claudia L. Taubman, MD","1400 Forest Glen Road #500, Silver Spring"
680,39.0327483,-77.00254799999999,Potts Adrienne MD,"10801 Lockwood Drive #320, Silver Spring"
681,39.03275989999999,-77.0025564,Shapiro Melvyn MD,"10801 Lockwood Drive #230, Silver Spring"
682,39.0249633,-77.0452629,"Dr. Claudia N. Williams-Conerly, DDS","10313 Georgia Avenue, Silver Spring"
683,38.9982379,-77.0332829,"Lisa M. Hoopes, CRNP","1400 Spring Street, Silver Spring"
684,39.0617835,-76.96187160000001,Pediatric Associates,"12520 Prosperity Drive #350, Silver Spring"
685,39.03304199999999,-77.00233600000001,"Robert F. Musselman, MD","10801 Lockwood Drive # 200, Silver Spring"
686,39.0330415,-77.0023361,Capital Gastroenterology: Oh Christine MD,"10801 Lockwood Drive # 200, Silver Spring"
687,39.0327399,-77.0025722,"Dr. Michael S. Schindler, MD","10801 Lockwood Drive, Silver Spring"
688,39.05741200000001,-76.957955,"Associates in Family Practice, P.A.","12210 Plum Orchard Drive Suite 212, Silver Spring"
689,39.0376238,-76.99078,Leibowitz Michael E MD,"11120 New Hampshire Avenue #305, Silver Spring"
690,39.0327598,-77.0025564,"Steven Maggid, MD, FACOG","10801 Lockwood Drive Suite #290, Silver Spring"
691,39.0376238,-76.99078,Saedi Sean S MD,"11120 New Hampshire Avenue, Silver Spring"
692,39.0376238,-76.99078,Geriatric Mental Health Systems: Stern Melvin J MD,"11120 New Hampshire Avenue, Silver Spring"
693,38.86482999999999,-77.23862869999999,"Ali Fazel, MD","8501 Arlington Boulevard, Fairfax"
694,38.8682694,-77.2372341,"Dr. Robin B. Merlino, MD","3020 Hamaker Court Suite B106, Fairfax"
695,38.86482999999999,-77.23862869999999,Commonwealth Orthopaedics PC: Vitek Jr Brantley P MD,"8501 Arlington Boulevard # 400, Fairfax"
696,38.8648843,-77.2386293,Pearl Phillip MD,"8501 Arlington Boulevard Ste 200, Fairfax"
697,38.865069,-77.239136,Virginia Surgeon,"8503 Arlington Boulevard #130, Fairfax"
698,38.864902,-77.239265,"Kiernan, Dr. Joseph M","8503 Arlington Boulevard, Fairfax"
699,38.86482999999999,-77.23862869999999,"Dr. Eleanor H. Yoon, MD","8501 Arlington Boulevard #300, Fairfax"
700,38.864461,-77.2399684,"Dr. Daniel M. Berinstein, MD","8505 Arlington Boulevard, Fairfax"
701,38.8689621,-77.234557,"Anthony E. Barone, MD","3022 Williams Drive 104, 200, 204, Fairfax"
702,38.8689621,-77.234557,"Julianne S. Greenberg, MD, FACR","3022 Williams Drive 104, 200, 204, Fairfax"
703,38.8648304,-77.2386229,"Robert Meister, M.D.","8503 Arlington Boulevard #400, Fairfax"
704,38.8648585,-77.2392993,"Dr. Nicholas J. Robert, MD","8503 Arlington Boulevard, Fairfax"
705,38.864902,-77.239265,Skin Cancer Surgery Center: Welch Mark L MD,"8503 Arlington Boulevard # 150, Fairfax"
706,38.86484509999999,-77.2393049,"Robert Reid, MD, FACP","8503 Arlington Boulevard Suite 400, Fairfax"
707,38.864902,-77.239265,"Safko, Dr. Anne M","8503 Arlington Boulevard, Fairfax"
708,38.878703,-77.237004,Dougherty Lynda S MD,"2710 Prosperity Avenue # 200, Fairfax"
709,38.8648031,-77.23934779999999,"Kulangara, Dr. Sara","8503 Arlington Boulevard, Fairfax"
710,38.8644708,-77.2399657,"Dr. Patrick W. Mason, MD","8505 Arlington Boulevard, Fairfax"
711,38.8648843,-77.2386293,Children's National Med Center: Lavenstein Bennett MD,"8501 Arlington Boulevard, Fairfax"
712,38.8649881,-77.23121979999999,"Dr. Sues, MD, PC","8301 Arlington Boulevard Suite 306, Fairfax"
713,38.8682723,-77.2371661,Neurology Center-Fairfax Ltd: Sigmund Linda S MD,"3020 Hamaker Court # 400, Fairfax"
714,38.86440049999999,-77.2400662,Dr. Harvey S. Sherber M.D.,"8505 Arlington Boulevard #200, Fairfax"
715,38.898146,-77.27038300000001,"Taeho Kim, MD","301 Maple Avenue West Suite 110, Vienna"
716,38.8691422,-77.23463269999999,General Internal Medicine Group: Fender Gary R MD,"3022 Williams Drive # 300, Fairfax"
717,38.85420390000001,-77.2232544,"Donald M. Poretz, MD, FACP, FIDSA","3289 Woodburn Road #200, Annandale"
718,38.8578938,-77.2284189,"Janus Ong, MD","3300 Gallows Road, Falls Church"
719,38.867568,-77.23402899999999,"Barry B. Ekdom, Ph.D., P.C.","3040 Williams Drive #402, Fairfax"
720,38.85763960000001,-77.2277234,"Dr. Margaret M. Griffen, MD","3300 Gallows Road, Falls Church"
721,38.85763960000001,-77.2277234,Fairfax Anesthesiology Associates: Yazdi Hamid MD,"3300 Gallows Road, Falls Church"
722,38.8648585,-77.2392993,"Dr. Michael E. Beall, MD","8503 Arlington Boulevard, Fairfax"
723,38.853826,-77.225572,Fairfax Orthopaedics: Kennedy Colleen A MD,"3301 Woodburn Road # 208, Annandale"
724,38.8682691,-77.2372465,"Richard C. Seestedt, M.D.","3020 Hamaker Court #400, Fairfax"
725,38.854147,-77.223271,Northern Virginia Pelvic Surgery Associates,"3289 Woodburn Road # 320, Annandale"
726,38.9319867,-77.2351156,Black & Kletz: Gondi Appaji MD,"1420 Spring Hill Road #350, McLean"
727,38.8682605,-77.2371924,"Dr. Robert C. Richard, MD","3020 Hamaker Court, Fairfax"
728,38.8682691,-77.2372465,Patel Sunil V MD,"3020 Hamaker Court, Fairfax"
729,38.923647,-77.2276485,"Dr. Ronald C. Childs, MD","8180 Greensboro Drive Suite 300, McLean"
730,38.8682723,-77.2371661,Commonwealth Urology,"3020 Hamaker Court, Fairfax"
731,38.8786846,-77.2370127,"Donald Colvin, MD; Fairfax Colon & Rectal Surgery, PC","2710 Prosperity Avenue # 200, Fairfax"
732,38.8664486,-77.2323966,Dr. Hema Sundaram,"8316 Arlington Boulevard, Fairfax"
733,38.8282467,-77.1104644,The Physician & Midwife Collaborative Practice,"4660 Kenmore Avenue Suite 902, Alexandria"
734,38.8282886,-77.11042820000002,Rothman Barry S MD,"1500 North Beauregard Street Suite 100, Alexandria"
735,38.8323731,-77.124364,Physicians For Women: Siegel Marc Evan MD,"22311, 1500 North Beauregard Street, Alexandria"
736,38.8282886,-77.11042820000002,"Deluna, Maria C, Md - Alexandria Primary Care Assoc","4660 Kenmore Avenue # 710, Alexandria"
737,38.8282886,-77.11042820000002,"Dr. Lawrence A. Miller, MD","4660 Kenmore Avenue, Alexandria"
738,38.8282886,-77.11042820000002,Digestive Disease Physicians: Ellison Craig M MD,"4660 Kenmore Avenue # 305, Alexandria"
739,38.8282886,-77.11042820000002,"Jeffrey E. Wong, MD","4660 Kenmore Avenue, Alexandria"
740,38.82209030000001,-77.1054146,"Ana S. Fuentes, MD","4320 Seminary Road, Alexandria"
741,38.8282886,-77.11042820000002,Digestive Disease Physicians: Hurley Sean MD,"4660 Kenmore Avenue # 305, Alexandria"
742,38.8282886,-77.11042820000002,"PAUL J. O'BRIEN, M.D., F.A.C.P., F.A.C.C., RPVI","4660 Kenmore Avenue #800, Alexandria"
743,38.8282487,-77.1104472,"Dr. Sunil K. Kalra, MD","4660 Kenmore Avenue, Alexandria"
744,38.869406,-77.100047,Advanced Health Center,"46 South Glebe Road #100, Arlington"
745,38.8676644,-77.1532524,"Dr. Christina A. Bruno, MD","6231 Leesburg Pike Suite 608, Falls Church"
746,38.8282467,-77.1104644,Capital Dermatology,"4660 Kenmore Avenue Ste 500, Alexandria"
747,38.86776479999999,-77.1531041,"Dr. Mary B. Mcateer, MD","6231 Leesburg Pike #608, Falls Church"
748,38.8676613,-77.1532354,Jeffery Amy MD,"6231 Leesburg Pike #608, Falls Church"
749,38.88359330000001,-77.1699466,"Gita Reddy, MD | Kaiser Permanente","201 North Washington Street, Falls Church"
750,38.872806,-77.16008219999999,Medical Surgical Group of N Va: Feola John P MD,"6400 Arlington Boulevard # 940, Falls Church"
751,38.8282886,-77.11042820000002,Sethi Rajesh K MD,"4660 Kenmore Avenue # 408, Alexandria"
752,38.8282886,-77.11042820000002,"Mary E. Cutting, MD FACOG","4660 Kenmore Avenue #902, Alexandria"
753,38.8282886,-77.11042820000002,"Kristina Hibshman, MD (Physicians for Women)","4660 Kenmore Avenue #1100, Alexandria"
754,38.828283,-77.11042499999999,Bruce D. Glassman MD,"4660 Kenmore Avenue #500, Alexandria"
755,38.8282886,-77.11042820000002,Gastroenterology/hepatology,"4660 Kenmore Avenue # 810, Alexandria"
756,38.8904393,-77.128214,"Aaron Ben Pearl, DPM (Arlington Foot & Ankle Center)","1715 North George Mason Drive #407, Arlington"
757,38.8839,-77.1697334,"Dr. Todd R. Sloan, MD","201 North Washington Street, Falls Church"
758,38.89026049999999,-77.1283328,Arlington Foot and Ankle,"1715 North George Mason Drive #407, Arlington"
759,38.8282901,-77.1105547,"Giath Alshkaki MD,PC","4660 Kenmore Avenue Suite 600, Alexandria"
760,38.834,-77.122636,"Dr. Ray (Raafat) Shabti, MD","1800 North Beauregard Street #100, Alexandria"
761,38.8282886,-77.11042820000002,"Alexandria Oral Surgery, PC","4660 Kenmore Avenue #204, Alexandria"
762,38.883909,-77.170079,"Eric Wollins, MD | Kaiser Permanente","201 North Washington Street, Falls Church"
763,38.8282487,-77.1104472,"Sonia Salgado, MD (Physicians for Women)","4660 Kenmore Avenue, Alexandria"
764,38.883909,-77.170079,Kaiser Permanente: Chawla Veena MD,"201 North Washington Street, Falls Church"
765,38.8282886,-77.11042820000002,Adult & Pediatric Urologists,"4660 Kenmore Avenue # 735, Alexandria"
766,38.8282487,-77.1104472,"Pediatric Cardiology Associates, P.C.","4660 Kenmore Avenue, Alexandria"
767,38.8282886,-77.11042820000002,Infinity Surgical Associates/Giath Alshkaki MD.PC,"4660 Kenmore Avenue, Alexandria"
768,38.8605082,-77.12802239999999,Select Physical Therapy,"611 South Carlin Springs Road Suite 505, Arlington"
769,38.8282531,-77.11041469999999,"Dr. Stephen P. Rosenfeld, MD","4660 Kenmore Avenue #1200, Alexandria"
770,38.8283039,-77.11040179999999,"Dr. Joel M. Temme, MD","4660 Kenmore Avenue Suite 604, Alexandria"
771,38.8323731,-77.124364,Physicians for Women,"1500 North Beauregard Street Suite 100, Alexandria"
772,38.8282487,-77.1104472,"Stefano F. Agolini, M.D.- General and Laparoscopic Surgical Associates, P.C.","4660 Kenmore Avenue, Alexandria"
773,38.8537901,-77.22551639999999,Northern Va Gastrointestinal: Prosky Martin G MD,"3301 Woodburn Road #107, Annandale"
774,38.854193,-77.22339769999999,"Barrett B. Brown, MD","3289 Woodburn Road #220, Annandale"
775,38.854059,-77.223356,"Dr. Eric A. Hurtado, MD","3289 Woodburn Road #320, Annandale"
776,38.854193,-77.22339769999999,Dr. Morrison,"3289 Woodburn Road #200, Annandale"
777,38.8538426,-77.2255816,Fairfax Orthopaedics,"3301 Woodburn Road #208, Annandale"
778,38.85410739999999,-77.2233011,Lamberti James P MD,"3289 Woodburn Road #350, Annandale"
779,38.854059,-77.223356,Libre Eric A MD,"3289 Woodburn Road # 350, Annandale"
780,38.854059,-77.223356,Vaughey Ellen C MD,"3289 Woodburn Road # 350, Annandale"
781,38.854193,-77.22339769999999,Walter vonPechmann MD,"3289 Woodburn Road #130, Annandale"
782,38.8836707,-77.1697686,"Nivedita Mohanty, MD | Kaiser Permanente","201 North Washington Street, Falls Church"
783,38.883909,-77.170079,"Leigh Boldt, MD | Kaiser Permanente","201 North Washington Street, Falls Church"
784,38.8836707,-77.1697686,"Dr. Mark A. Tretiak, MD","201 North Washington Street, Falls Church"
785,38.8837517,-77.1696585,Saroff Donald A MD,"201 North Washington Street, Falls Church"
786,38.8835297,-77.1698285,Kaiser Permanente Health Care: Sherer David J MD,"201 North Washington Street, Falls Church"
787,38.883909,-77.170079,"Dr. James J. Tier, MD","201 North Washington Street, Falls Church"
788,38.88369890000001,-77.1697983,"Kajal Dasgupta, MD | Kaiser Permanente","201 North Washington Street, Falls Church"
789,38.8792809,-77.1830437,Falls Church Medical Center LLC: Gresinger Thomas H MD,"900 South Washington Street # 300, Falls Church"
790,38.8884285,-77.1802821,Oasis Pediatric Dental Care & Orthodontics,"800 West Broad Street #307, Falls Church"
791,38.9180828,-77.2293411,Delgado & Kuzmik: Delgado Edward B DDS,"8230 Leesburg Pike # 720, Vienna"
792,38.916109,-77.23014,"Dr. Joseph C. Watson, MD","8230 Boone Boulevard #360, Vienna"
793,38.9346215,-77.2071778,Mesbahi Plastic Surgery,"7601 Lewinsville Road STE 400, McLean"
794,38.923647,-77.2276485,"Dr. Bruce M. Freedman, MD","8180 Greensboro Drive, McLean"
795,38.8836707,-77.1697686,"Dr. Jacqueline R. Berry, MD","201 North Washington Street, Falls Church"
796,38.9306421,-77.1811177,Attention Mental Health,"1499 Chain Bridge Road #100, McLean"
797,38.883909,-77.170079,"Dr. M P. Alexander, MD","201 North Washington Street, Falls Church"
798,38.883909,-77.170079,"Dr. Sidney G. Chetta, MD","201 North Washington Street, Falls Church"
799,38.8836707,-77.1697686,"Mark Naftanel, MD | Kaiser Permanente","201 North Washington Street, Falls Church"
800,38.9303313,-77.1818113,"Dr. Robert M. Dombrowski, MD","1515 Chain Bridge Road Suite 202, McLean"
801,38.89469,-77.1918237,Arlington Clinic,"7115 Leesburg Pike # 315, Falls Church"
802,38.91499319999999,-77.2331059,Sawchuk & Masri-Fridling Ltd: Sawchuk William S MD,"8320 Old Courthouse Road, Vienna"
803,38.89469,-77.191824,Tysons Pediatric Dentistry,"7115 Leesburg Pike ste 210, Falls Church"
804,38.8839,-77.1697334,Kaiser Permanente Health Care: Romney Rebecca MD,"201 North Washington Street, Falls Church"
805,38.8792809,-77.1830437,Falls Church Healthcare Center,"900 South Washington Street #300, Falls Church"
806,38.9303313,-77.1818113,McLean Family and Cosmetic Dentistry,"1515 Chain Bridge Road, McLean"
807,38.883909,-77.170079,"Dr. Robert W. Sjogren Jr, MD","201 North Washington Street, Falls Church"
808,38.9154,-77.232612,Tavallali Plastic Surgery,"8245 Boone Boulevard Suite 540, Vienna"
809,38.88200399999999,-77.171747,"Ellen C. Vaughey, M.D.","101 West Broad Street #301, Falls Church"
810,38.8839774,-77.1703546,Robert R Lu MD | Kaiser Permanente,"201 North Washington Street, Falls Church"
811,38.883909,-77.170079,Kaiser Permanente Health Care: Watkis Patricia A MD,"201 North Washington Street, Falls Church"
812,38.883909,-77.170079,"Dr. Neil M. Stern, MD","201 North Washington Street, Falls Church"
813,38.8904393,-77.128214,"Derek H. Ochiai, M.D.","1715 North George Mason Drive #504, Arlington"
814,38.89040539999999,-77.12824719999999,"Dr. Diego I. Kuperschmit, MD","1715 North George Mason Drive # 204, Arlington"
815,38.890436,-77.1281962,Lawrence Ballon MD,"1715 North George Mason Drive, Arlington"
816,38.88881360000001,-77.1276712,Dr. David W. Romness,"1635 North George Mason Drive #310, Arlington"
817,38.89043900000001,-77.128214,Herman Gabriel B MD,"1715 North George Mason Drive STE 204, Arlington"
818,38.8891566,-77.12856219999999,Inova Medical Group General Surgery,"1715 North George Mason Drive #403, Arlington"
819,38.8903582,-77.1283016,Nirschl Orthopaedic Center for Sports Medicine and Joint Reconstruction,"1715 North George Mason Drive #504, Arlington"
820,38.890315,-77.12825099999999,"Dr. Robert P. Nirschl, MD, MS","1715 North George Mason Drive #504, Arlington"
821,38.89040539999999,-77.12824719999999,Metropolitan Surgical Associates: Sandiford John A MD,"1715 North George Mason Drive # 403, Arlington"
822,38.88931540000001,-77.1280902,Virginia Hospital Center: Seiler Angele MD,"1635 North George Mason Drive, Arlington"
823,38.8891164,-77.12763240000001,Virginia Hospital Center Arlngtn: Runkle Beatriz MD,"1701 North George Mason Drive, Arlington"
824,38.8891164,-77.12763240000001,Virginia Hospital Center Arlington,"1635 North George Mason Drive, Arlington"
825,38.888622,-77.126389,PMA Health - Arlington,"1625 North George Mason Drive Suite 355, Arlington"
826,38.8890755,-77.1274832,Endocrinology Assocs Arlington,"1635 North George Mason Drive, Arlington"
827,38.8892481,-77.1280872,Virginia Hospital Center: Karakunnel Joyson MD,"1635 North George Mason Drive # 115, Arlington"
828,38.89041599999999,-77.1282291,Gupta Pradeep K MD,"1715 North George Mason Drive #204, Arlington"
829,38.89040539999999,-77.12824719999999,"Dr. Catherine A. Lischwe, MD","1715 North George Mason Drive, Arlington"
830,38.8892481,-77.1280872,"Paula M. Bergamini, M.D.","1635 North George Mason Drive, Arlington"
831,38.8892481,-77.1280872,"Rafat A. Abbasi MD, FACOG","1005 North Glebe Road Suite 470, Arlington"
832,38.8727611,-77.160305,"Dr. Michael A. Hattwick, MD","6400 Arlington Boulevard Suite 930, Falls Church"
833,38.86776479999999,-77.1531041,Seidman David MD,"6231 Leesburg Pike, Falls Church"
834,38.86766130000001,-77.15323529999999,"William L. Rich, III, M.D., FACS","6231 Leesburg Pike #608, Falls Church"
835,38.930321,-77.181849,Al-Dalli Mohammed MD,"1515 Chain Bridge Road # 302, McLean"
836,38.93028940000001,-77.18193910000001,Krakower & Zanetti,"1515 Chain Bridge Road # 308, McLean"
837,38.930321,-77.181849,Krakower & Zanetti: Krakower Brian MD,"1515 Chain Bridge Road, McLean"
838,38.93028940000001,-77.18193910000001,McLean Oral Surgery,"1515 Chain Bridge Road # 206, McLean"
839,38.9346746,-77.20725639999999,Dr. Navin Singh,"7601 Lewinsville Road STE 300, McLean"
840,38.930321,-77.181849,"Bita Motesharrei, MD","1515 Chain Bridge Road #314, McLean"
841,38.9303313,-77.1818113,Elite Ob/Gyn Associates: Dipaolo Sanda MD,"1515 Chain Bridge Road, McLean"
842,38.930321,-77.181849,Women's Global Health,"1515 Chain Bridge Road Suite 314, McLean"
843,38.930321,-77.181849,Nimmagadda Ram MD,"1515 Chain Bridge Road, McLean"
844,38.930321,-77.181849,Maiberger Patrick G MD,"1515 Chain Bridge Road # 208, McLean"
845,38.9303313,-77.1818113,Elite Ob/Gyn Associates: Filipescu Nicolae MD,"1515 Chain Bridge Road, McLean"
846,38.930321,-77.181849,"Eric A. Foretich, DDS, MA","1515 Chain Bridge Road #206, McLean"
847,38.930321,-77.181849,Ear Nose & Throat Medical Group: Vap J Gordon MD,"1515 Chain Bridge Road, McLean"
848,38.934634,-77.20719,"Virginia Oral, Facial & Implant Surgery","7601 Lewinsville Road Suite 203, McLean"
849,38.930321,-77.181849,Krakower & Zanetti: Zanetti Christopher MD,"1515 Chain Bridge Road # 308, McLean"
850,38.8486373,-77.076382,Branche III George C MD,"2445 Army Navy Drive, Arlington"
851,38.84250749999999,-77.0801094,"Dr. Paul M. Goldberg, DO","1225 Martha Custis Drive, Alexandria"
852,38.842582,-77.080163,Osteopathic Family Physicians,"1225 Martha Custis Drive # C7, Alexandria"
853,38.842389,-77.0805584,Inova Steinmetz Center for Integrative Medicine,"1225 Martha Custis Drive, Alexandria"
854,38.8487176,-77.0765657,Anderson Orthopedic Clinic,"2445 Army Navy Drive, Arlington"
855,38.8486304,-77.0763187,"Jeffrey L. Lovallo, MD","2445 Army Navy Drive, Arlington"
856,38.84253,-77.084577,"Domenica Rubino, MD","2800 Shirlington Road Suite 505, Arlington"
857,38.8486304,-77.0763187,Engh Gerard a MD,"2445 Army Navy Drive, Arlington"
858,38.8486303,-77.0763187,Sameer H Nagda MD,"2445 Army Navy Drive, Arlington"
859,38.8484961,-77.0762112,"Dr. Kevin B. Fricka, MD","2445 Army Navy Drive, Arlington"
860,38.8486303,-77.0763187,"Kari S. Hall, MS","2445 Army Navy Drive, Arlington"
861,38.8484961,-77.0762112,"Dr. William G. Hamilton, MD","2445 Army Navy Drive, Arlington"
862,38.8484961,-77.0762112,"Nitin Goyal, M.D.","2445 Army Navy Drive, Arlington"
863,38.8486303,-77.0763187,"Kristin A. Duff, PA","2445 Army Navy Drive, Arlington"
864,38.8486303,-77.0763187,Center For Joint Replacement,"2445 Army Navy Drive, Arlington"
865,38.8484961,-77.0762112,"Dr. John L. Albrigo, MD","2445 Army Navy Drive, Arlington"
866,38.8424553,-77.080145,Steinmetz Marie F MD -Steinmetz Medical Associates PC,"1225 Martha Custis Drive, Alexandria"
867,38.842582,-77.080163,Phan Family Dentistry,"1225 Martha Custis Drive C6, Alexandria"
868,38.842582,-77.080163,Steinmetz Medical Associates: Nguyen Thomas MD,"1225 Martha Custis Drive # C1, Alexandria"
869,38.8425745,-77.0848862,"Dr. Virgil A. Balint, MD","2800 Shirlington Road, Arlington"
870,38.84250749999999,-77.0801094,"Jennifer Lee, DO, MPH, DABFP (Steinmetz Medical Associates, P.C.)","1225 Martha Custis Drive, Alexandria"
871,38.8956482,-77.0718924,Rosslyn Eye Associates,"1700 North Moore Street #1150, Arlington"
872,38.84250749999999,-77.0801094,"Rosemarie Rose, MD (Steinmetz Medical Associates, P.C.)","1225 Martha Custis Drive, Alexandria"
873,38.842582,-77.080163,"Lauren Smith-Papke, PHD","1225 Martha Custis Drive #2, Alexandria"
874,38.89552490000001,-77.07190179999999,"David W. Weiss, OD","1700 North Moore Street, Arlington"
875,38.8892481,-77.1280872,"Dr. Kevin D. Sumida, MD","1635 North George Mason Drive #310, Arlington"
876,38.89040539999999,-77.12824719999999,"Dr. Mohammad Z. Iqbal, MD","1715 North George Mason Drive, Arlington"
877,38.8903532,-77.1284005,Cornea Consultants,"1715 North George Mason Drive, Arlington"
878,38.8904393,-77.128214,Nirschl Orthopaedic Center for Sports Medicine & Joint Reconstruction,"1715 North George Mason Drive #504, Arlington"
879,38.89040539999999,-77.12824719999999,"See Clearly Vision: John G. Yassin, MD","1715 North George Mason Drive # 206, Arlington"
880,38.89040539999999,-77.12824719999999,"Dr. Thien-Giang Bach-Huynh, MD","1715 North George Mason Drive, Arlington"
881,38.8892481,-77.1280872,Arlington Eye Center: Gaspar Maurice L MD,"1635 North George Mason Drive # 100, Arlington"
882,38.8891697,-77.1272851,"Thomas Rakowski, MD","1701 North George Mason Drive, Arlington"
883,38.89040539999999,-77.12824719999999,Retina Centers Of Washington,"1715 North George Mason Drive, Arlington"
884,38.8904121,-77.1281974,"Dr. Toufic S. Melki, MD","1715 North George Mason Drive # 101, Arlington"
885,38.82209030000001,-77.1054146,"Dr. Anne K. Nowak, MD","4320 Seminary Road, Alexandria"
886,38.82209030000001,-77.1054146,"Dr. Lilia G. Butler, MD","4320 Seminary Road, Alexandria"
887,38.82209030000001,-77.1054146,Pediatrix,"4320 Seminary Road, Alexandria"
888,38.82209030000001,-77.1054146,"Dr. Martin H. Brown, MD","4320 Seminary Road, Alexandria"
889,38.82209030000001,-77.1054146,"Dr. Alessandro Ghidini, MD","4320 Seminary Road, Alexandria"
890,38.82209030000001,-77.1054146,Cope Gregory W MD,"4320 Seminary Road, Alexandria"
891,38.8282467,-77.1104644,"Maria Concepcion Asesor, MD","4660 Kenmore Avenue Suite 710, Alexandria"
892,38.8282487,-77.1104472,"Dr. Victoria H. Murphy, MD","4660 Kenmore Avenue, Alexandria"
893,38.82209030000001,-77.1054146,"Dr. Catherine Y. Spong, MD","4320 Seminary Road, Alexandria"
894,38.8224501,-77.1049983,"Matthew Poggi, MD","4320 Seminary Road, Alexandria"
895,38.82209030000001,-77.1054146,"Dr. Negash Ayele, MD","4320 Seminary Road, Alexandria"
896,38.8358925,-77.0987018,Acupuncture & Herbal Healing Center,"4900 31st Street South Suite B, Arlington"
897,38.82209030000001,-77.1054146,"Dr. Jane Grayson, MD","4320 Seminary Road, Alexandria"
898,38.8224501,-77.1049983,"Thomas H. Clark, MD","4320 Seminary Road, Alexandria"
899,38.82209030000001,-77.1054146,"Dr. Ofundem Akoh-Arrey, MD","4320 Seminary Road, Alexandria"
900,38.8224501,-77.1049983,"Joseph B. Marfori, MD","4320 Seminary Road, Alexandria"
901,38.8224501,-77.1049983,"Fatisha E. Gayton, MD","4320 Seminary Road, Alexandria"
902,38.8224501,-77.1049983,"Dr. Thomas M. DO, MD","4320 Seminary Road, Alexandria"
903,38.822153,-77.1052697,Undeland Yasmin,"4320 Seminary Road #3000, Alexandria"
904,38.82209030000001,-77.1054146,Inova Alexandria Hospital: Burnett Michelle Ka MD,"4320 Seminary Road, Alexandria"
905,38.8221772,-77.10532839999999,"Dr. Nelson A. Burton, MD","4320 Seminary Road, Alexandria"
906,38.82209030000001,-77.1054146,"Dr. Margaret L. France, MD","4320 Seminary Road, Alexandria"
907,38.82209030000001,-77.1054146,"Dr. Joan S. Naidorf, DO","4320 Seminary Road, Alexandria"
908,38.82209030000001,-77.1054146,Inova Alexandria Hospital: Lee Suong MD,"4320 Seminary Road, Alexandria"
909,38.82209030000001,-77.1054146,Inova Alexandria Hospital: Tidaback Dale MD,"4320 Seminary Road, Alexandria"
910,38.82209030000001,-77.1054146,Inova Alexandria Hospital: Tom Jaimie S MD,"4320 Seminary Road, Alexandria"
911,38.82209030000001,-77.1054146,Inova Alexandria Hospital: Pittman Amy Anne MD,"4320 Seminary Road, Alexandria"
912,38.8109601,-77.1115906,"Dr. Franklin J. Pepper, MD","4600 Duke Street, Alexandria"
913,38.82209030000001,-77.1054146,"Dr. Sarah H. Poggi, MD","4320 Seminary Road, Alexandria"
914,38.8221772,-77.10532839999999,"Dr. Kathleen P. Kelly, MD","4320 Seminary Road, Alexandria"
915,38.8221772,-77.10532839999999,"Dr. Laura A. Dewitt, MD","4320 Seminary Road, Alexandria"
916,38.82828019999999,-77.11042549999999,Whittaker Scott L MD,"4660 Kenmore Avenue #1210, Alexandria"
917,38.8282886,-77.11042820000002,Digestive Disease Physicians: Ansher Alan F MD,"4660 Kenmore Avenue # 305, Alexandria"
918,38.7398874,-77.0778554,Anderson Clinic: Albrigo John L MD,"2501 Parkers Lane, Alexandria"
919,38.7397466,-77.0769751,"Sea Hun Kim, MD","2501 Parkers Lane, Alexandria"
920,38.7398814,-77.0771223,"Ali G. Ganjei, MD","2501 Parkers Lane, Alexandria"
921,38.7400853,-77.0773206,Inova Mt Vernon Hospital: Graynovsky Margaret MD,"2501 Parkers Lane, Alexandria"
922,38.7400853,-77.0773206,Inova Mt Vernon Hospital: Titus Jonathan MD,"2501 Parkers Lane, Alexandria"
923,38.7400853,-77.0773206,"Dr. Kevin B. Fricka, MD","2501 Parkers Lane, Alexandria"
924,38.7400853,-77.0773206,Wound Center,"2501 Parkers Lane, Alexandria"
925,38.7397466,-77.0769751,Mohindra Rachna MD,"2501 Parkers Lane, Alexandria"
926,38.7397196,-77.0771323,"Dr. William G. Hamilton, MD","3209, 2501 Parkers Lane # 200, Alexandria"
927,38.7397196,-77.0771323,Wereszynski Stephen E,"2501 Parkers Lane, Alexandria"
928,38.7397196,-77.0771323,Inova Mt Vernon Hospital: Kearney Patrick J MD,"2501 Parkers Lane, Alexandria"
929,38.7400853,-77.0773206,Inova Mt Vernon Hospital: Ramsey Peter N MD,"2501 Parkers Lane, Alexandria"
930,38.7405036,-77.07726269999999,Garrett Melody MD,"2501 Parkers Lane, Alexandria"
931,38.7397196,-77.0771323,Homeyer Michael D MD,"2501 Parkers Lane, Alexandria"
932,38.73974699999999,-77.07697499999999,"C. Anderson Engh Jr., MD","Anderson Orthopaedic Clinic, 2501 Parkers Lane Suite 200, Alexandria"
933,38.743385,-77.077409,Sherwood Hall Orthopedics,"2616 Sherwood Hall Lane # 300, Alexandria"
934,38.7433951,-77.0774214,Associates in Otolaryngology,"2616 Sherwood Hall Lane Suite 408, Alexandria"
935,38.743385,-77.077409,Alexandria Dermatology: Swan Harvey F MD,"2616 Sherwood Hall Lane # 306, Alexandria"
936,38.7400853,-77.0773206,"Dr. Michael J. Shuster, MD","2501 Parkers Lane, Alexandria"
937,38.7400853,-77.0773206,Embrey III Everett C MD,"2501 Parkers Lane, Alexandria"
938,38.743385,-77.077409,"Dr. Tanya R. Davis-Spaulding, MD","2616 Sherwood Hall Lane, Alexandria"
939,38.74696000000001,-77.08488779999999,"Dr. Brenda E. Mitchell, MD","7770 Richmond Highway, Alexandria"
940,38.743385,-77.077409,Luisada Paul V MD,"2616 Sherwood Hall Lane # 206, Alexandria"
941,38.743385,-77.077409,Physicians & Midwifes Collaborative: Giammittorio David C MD,"2616 Sherwood Hall Lane # 208, Alexandria"
942,38.743385,-77.077409,Physicians & Midwifes Collaborative: Brazie Marc F MD,"2616 Sherwood Hall Lane # 208, Alexandria"
943,38.743385,-77.077409,Digestive Healthcare Specs Llc,"2616 Sherwood Hall Lane, Alexandria"
944,38.743385,-77.077409,"Angelo Pace, DPM","2616 State Route 626 #401, Alexandria"
945,38.743385,-77.077409,Metropolitan Nephrology: Reddy Manoj MD,"2616 Sherwood Hall Lane # 209, Alexandria"
946,38.743406,-77.0773571,"Janelle A. Hibson, APRN","2616 Sherwood Hall Lane, Alexandria"
947,38.743385,-77.077409,Myriam- Urrutia Eder MD,"2616 Sherwood Hall Lane #203, Alexandria"
948,38.73738869999999,-77.0772272,Millennium Pregnancy and Gynecology,"8101 Hinson Farm Road #107, Alexandria"
949,38.752638,-77.1401328,Raval Dipa K MD,"7598 Telegraph Road, Alexandria"
950,38.75262849999999,-77.14012810000001,Medical Access-My Urgent Care & More.....,"7598 Telegraph Road, Alexandria"
951,38.7314701,-77.104447,"Dr. Faisal A. Chaudri, MD","8350 Richmond Highway, Alexandria"
952,38.7314403,-77.1045582,"Rachel L. Bakanowski, NP","8350 Richmond Highway, Alexandria"
953,38.7314403,-77.1045582,"Dr. Mesay Balcha, MD","8350 Richmond Highway, Alexandria"
954,38.7740142,-77.1376191,Kingstowne Internal Medicine,"5901 Kingstowne Village Parkway #300, Kingstowne"
955,38.73713850000001,-77.0770134,Dr. Cleveland Francis M.D.,"8101 Hinson Farm Road #408, Alexandria"
956,38.7397196,-77.0771323,Avis Frederick MD,"2501 Parkers Lane, Alexandria"
957,38.7400853,-77.0773206,Mt Vernon Hospital: Swedo Gregory MD,"2501 Parkers Lane, Alexandria"
958,38.804778,-77.060706,Green Dental of Alexandria,"1725 Duke Street, Suite GR03, Alexandria"
959,38.7905938,-77.059189,Orthopedic Medicine of Alexandria,"5845 Richmond Highway #400, Alexandria"
960,38.78667,-77.06943,Doctor Laura Robinette MD,"6020 Richmond Highway #102, Alexandria"
961,38.801377,-77.0667898,"Deborah A. Stokes, PHD","2121 Eisenhower Avenue, Alexandria"
962,38.8062325,-77.0515047,LasikPlus,"1101 King Street Suite 100, Alexandria"
963,38.7400853,-77.0773206,Fair Oaks Anesthesia Associates: Miller Julie MD,"2501 Parkers Lane, Alexandria"
964,38.76745749999999,-77.1606335,Capital Women's Care LLC: Policelli Vincent A MD,"6355 Walker Lane # 508, Alexandria"
965,38.76742779999999,-77.1607319,"Dr. Daniel E. Weingold, MD","6355 Walker Lane # 202, Alexandria"
966,38.7672049,-77.1607569,Dr. Daniele Mauricette Nunez M.D.,"6355 Walker Lane #500, Alexandria"
967,38.76745749999999,-77.1606335,"Michael B. Kusic, MD","6355 Walker Lane # 508, Alexandria"
968,38.7672462,-77.16074890000002,Tina Pham M.D.,"6355 Walker Lane #408, Alexandria"
969,38.7672462,-77.16074890000002,"Dr. Koslow and Associates, LTD","6355 Walker Lane #303, Alexandria"
970,38.76718880000001,-77.1607559,Rothschild Peter G MD,"6355 Walker Lane #508, Alexandria"
971,38.76742779999999,-77.1607319,"Dr. Young J. You, MD","6355 Walker Lane # 202, Alexandria"
972,38.767335,-77.1609039,"Anne B. Kernan-Grunzke, M.D.","6355 Walker Lane #401, Alexandria"
973,38.7688853,-77.1569981,"Dr. Mary B. Mcateer, MD","6363 Walker Lane Suite 150, Alexandria"
974,38.76742779999999,-77.1607319,All Phases Dermatology LLC,"6355 Walker Lane # 311, Alexandria"
975,38.7671604,-77.16075359999999,Pediatric Associates of Alexandria,"6355 Walker Lane #401, Alexandria"
976,38.767458,-77.16063299999999,Integrated Neurology Services,"6355 Walker Lane #313, Alexandria"
977,38.76742779999999,-77.1607319,Obgyn Associates,"6355 Walker Lane # 408, Alexandria"
978,38.76745749999999,-77.1606335,"Dr. Christine L. Tran, MD","6355 Walker Lane #508, Alexandria"
979,38.76742779999999,-77.1607319,Northern Virginia Allergy,"6355 Walker Lane # 307, Alexandria"
980,38.76900229999999,-77.16078399999999,The Retina Group of Washington,"6354 Walker Lane #100, Alexandria"
981,38.7688914,-77.157119,"Dr.David J. Forster, M.D.","6363 Walker Lane #150, Alexandria"
982,38.7688853,-77.15699819999999,"William L. Rich, III, M.D., FACS","6363 Walker Lane #150, Alexandria"
983,38.7672462,-77.16074890000002,Santiago Jennifer MD,"6355 Walker Lane #408, Alexandria"
984,38.76742779999999,-77.1607319,Inova Healthplex: Nayyar Rashid MD,"6355 Walker Lane # 300, Alexandria"
985,38.76742779999999,-77.1607319,Advanced Pace Foot & Ankle Center,"6355 Walker Lane #305, Alexandria"
986,38.76742779999999,-77.1607319,"Dr. Thomas A. Martinelli, MD","6355 Walker Lane Suite 202, Alexandria"
987,38.76742779999999,-77.1607319,Inova Health System: Kaplan Geoffrey R MD,"6355 Walker Lane # 100, Alexandria"
